longitude,latitude,fsq_venueName,fsq_venueCount
-0.124705,51.530051,Equipe De France Paralympique - Homecoming Eurostar,1
-0.21766663,51.42500896,Dog & Fox,1
-0.31624915,51.34860098,Chicken Shack,1
-0.00414133,51.55778287,Muggers Bridge,1
-0.12559578,51.51140089,Snog Pure Frozen Yogurt,3
-0.091301,51.505511,Elliot's Cafe,1
-0.14453615,51.55412014,Dirty Burger,5
-0.18657137,51.55265897,Galvin at Windows Bar (28 floor) at London Hilton Hotel,1
-0.004205,51.58858,LOT 107,1
-0.125314,51.500916,St. Stephens Tavern,1
-0.46335697,51.46948812,Gate 18,1
-0.10886,51.510645,The River Bar,3
-0.09121656,51.51494884,The Anthologist,1
-0.47618866,51.47110546,Terminal 5C,1
-0.14833335,51.466428,Hydrovets,1
-0.13164563,51.52816574,Network Rail,1
-0.14045048,51.51120491,Nicholson's Pub,1
0.11091471,51.56574661,Goodmayes Railway Station (GMY),1
-0.15980354,51.51602603,The Arch Hotel,1
-0.13456106,51.52858389,Platform 17,2
0.023067,51.51636761,COLO2 UK2 Canning Town,1
-0.09808904,51.55381888,The Highbury Barn,1
0.07781066,51.53521262,Barking Bathhouse,1
-0.180482,51.51481,Raquel Britzke - Nutritionist,1
0.03841444,51.53076498,Boleyn Cinema,1
-0.24223,51.51175,Acton town action Pad,1
-0.145572,51.519896,Quintessentially Group,1
-0.19090116,51.44114224,Crossfitbold,2
-0.10486901,51.52021309,Farringdon Underground Station,1
-0.08885622,51.52558687,Pell & Bales,1
0.05319324,51.45068947,Eltham High Street/Chequers Parade (M),1
-0.21903992,51.50691277,NET-A-PORTER Group Ltd,1
-0.16726675,51.49450524,Jak's Bar,2
-0.39709568,51.66090996,Watford's Vibe 107.6,1
-0.23106824,51.57200857,Rio's Diner,1
-0.55369377,51.43169832,Loch Fyne,1
-0.356369,51.40065,averna,1
-0.1621039,51.5000948,Gran cafe londra (Harrods),1
-0.13714373,51.50807676,Jermyn Street,1
-0.15874386,51.51336311,Pret A Manger,46
-0.119914,51.516238,Allilon Academy,1
-0.12975642,51.49506077,NPIA,2
-0.14276326,51.50673914,Green Park Underground Station,13
-0.142484,51.510477,174 New Bond Street,1
0.02192974,51.4306816,Grove Park Railway Station (GRP),5
0.00167198,51.6484652,Gilwell Scout Centre,3
-0.110471,51.502633,Fire Station,2
-0.05680451,51.53856239,The London Fields,1
-0.09918622,51.58055124,Gökyüzü Restaurant,1
-0.03886658,51.49418175,Surrey Docks Watersports Centre,1
-0.21883862,51.5060754,The Meat And Wine Company,1
-0.18702436,51.511257,Taza Kebab House,1
-0.13908595,51.51282561,Cha Cha Moon,2
-0.12666464,51.42256042,Streatham Green,1
-0.18699156,51.51069357,New Fortune Cookie,1
-0.09402752,51.51932519,Lakeside Terrace,1
-0.121099,51.487253,Spring Gardens,1
-0.00918388,51.48069469,Cafe Sol,1
0.00382951,51.56036768,Cathall Leisure Centre,2
-0.08952141,51.46518386,Fox On The Hill (Wetherspoon),1
-0.1563406,51.56335897,Highgate Men's Bathing Pond,1
-0.10462761,51.43581847,B&Q Supercentre,1
-0.13024807,51.51066556,Empire Cinema,3
-0.09209633,51.50225139,Kaplan Financial,1
-0.13179302,51.50615149,The Royal Society,4
-0.42712569,51.46055832,Bedfont Sports FC,1
-0.46303981,51.47339593,Gate 34,1
-0.07819176,51.52118776,The Water Poet,1
-0.3081957,51.39118732,BoCo Yoga,2
-0.08066123,51.52016201,Exchange House (Exchange Square),2
-0.44661898,51.378611,The Weybridge Health Club,1
-0.077381,51.456896,Willow,1
0.17939226,51.44829835,Crayford Railway Station (CRY),1
-0.51185131,51.40446653,Vortex,1
-0.178069,51.55552268,Ginger & White,1
-0.15119076,51.51498556,Reiss,1
-0.10126077,51.51931993,Smithfield Market,1
-0.167429,51.460844,Adventure Bar (Clapham Junction),1
-0.29787941,51.54155223,Andrews Hairdressers,1
0.24749564,51.55362434,Bizara Cards,1
-0.13020515,51.51395067,The Montagu Pyke (Wetherspoon),2
-0.0763464,51.42447377,Crystal Palace Transmitting Station,1
-0.11972024,51.5033228,London Eye Pier,3
-0.087563,51.514977,Mint Leaf Lounge,2
-0.01832485,51.50358708,Jubilee Park,2
-0.14056921,51.52624102,National Union of Students,1
-0.142434,51.53847473,Black Cap,1
0.01338959,51.44956746,Lee Railway Station (LEE),1
-0.4636324,51.35065343,The Heights,3
-0.10489169,51.54669965,Highbury Corner Magistrates Court,1
-0.138193,51.523282,Sardo,1
-0.16787374,51.52985061,Rym Cafe,1
-0.09756804,51.51479528,St. Paul's Underground Station,1
-0.086689,51.50347355,Guy's Hospital,2
-0.19753933,51.48906607,Earls Court Exhibition Centre,4
-0.302262,51.461257,Fire PR,2
-0.30858342,51.46437235,Old Deer Park,1
-0.189232,51.445799,Thai Grocer,1
0.02721095,51.43158207,P. J. Supplies,1
0.05823414,51.36596152,Princess Royal University Hospital,1
0.05411625,51.450192,Argos,5
0.08079548,51.49735217,Phil's riverside apartment,1
0.17152357,51.60044503,BatBed,3
-0.29839171,51.4106894,The Fighting Cocks,1
0.00969887,51.5444348,University of East London (Stratford Campus),2
-0.15820022,51.49177764,Caffè Fratelli,1
-0.14009714,51.51276218,Hamleys,9
-0.178222,51.482699,Mona Lisa Cafe,1
-0.09986517,51.53073653,Rheidol Mews,1
-0.10263205,51.51939862,Smiths of Smithfield,1
-0.18980828,51.51394871,London House Hotel,2
-0.27474403,51.4934616,Chiswick Business Park,3
-0.15090636,51.53692851,River island Hq,1
-0.19782295,51.51877618,The Oak,1
-0.384768,51.645031,London Midland trains,4
-0.11085726,51.56890479,Vagabond,2
-0.087767,51.519722,2020 London,1
-0.30062199,51.48758299,TfL Bus 65,1
-0.08844,51.56090856,Safedale Pharmacy,2
-0.07671036,51.52338914,Alchemy Social,1
-0.09347498,51.51348997,Bow Wine Vaults,1
-0.1290679,51.52500613,Tavistock Square,2
-0.09717348,51.50728097,WDMP Limited,2
-0.11229663,51.4987889,Cotto Restaurant,1
-0.22942543,51.42495544,Cannizaro House,3
-0.29256569,51.51281899,Sam's Chicken,2
-0.01738071,51.50540355,HSBC Group HO,2
-0.07239832,51.50250517,Dachis Group (formerly Headshift),1
-0.11920757,51.48647094,Horsemeat Disco,1
-0.10624793,51.52912625,Sadler's Wells,1
-0.146379,51.306989,Full Monty Cafe,1
-0.101232,51.325124,Kenley Railway Station Car Park,1
-0.14221072,51.51517251,United Colors of Benetton,1
-0.18382562,51.51341883,The Pavilion Holiday Villa Hotel,1
-0.02074198,51.53121063,Fairfield Bow E3,1
-0.15831172,51.52555058,Regents Park Pond,4
0.01389,51.405566,The Partridge,1
-0.11587143,51.50728672,The Riverfront Bar and Kitchen,2
-0.22153,51.4487403,Tibbets Corner,1
0.00482623,51.48487463,The Crown,4
-0.114844,51.510407,Bar & Co,1
-0.1222913,51.51181,Roadhouse,1
-0.07884622,51.419998,Westow House,1
-0.00820072,51.47945643,Rose and Crown,1
-0.33036232,51.44996863,Twickenham Railway Station (TWI),3
-0.42142868,51.57138842,Ruislip Underground Station,1
-0.39587598,51.48851409,Heston Services,2
-0.02681109,51.51080313,Limehouse Police Station,1
-0.012228,51.591118,Waltham Forest Town Hall Social Club,1
-0.3025613,51.45255408,Angelique's Spot by the River !,1
-0.12114801,51.40753503,Cafe Nomad,1
-0.13666104,51.52303139,Japanese Canteen,2
-0.48726082,51.48483046,British Airways,12
0.0527248,51.46770483,My Sofa @ My House,1
-0.148273,51.570801,Brooksbys,2
-0.13798223,51.54570612,TfL Bus N20,1
-0.13385738,51.50774745,BP Headquarters,1
-0.521184,51.433528,Salesforce.com UK,1
-0.09372711,51.51969237,Barbican Centre,7
-0.146984,51.50703,Tamarind,2
0.02235889,51.50289253,West Silvertown DLR Station,2
-0.41130066,51.41417014,Virgin Active Sunbury,2
-0.176818,51.51147,The Swan,2
-0.168802,51.55694474,Freemason's Arms,3
-0.41388148,51.67059879,London Heathrow,1
-0.157217,51.518456,PrePay Solutions,1
0.052312,51.45067,The Banker's Draft  (Wetherspoon),1
-0.09737014,51.51760338,200 Aldersgate,1
-0.03733635,51.47347121,Goldsmiths New Academic Building,1
-0.13747931,51.50912976,Malta Embassy,1
0.20745277,51.56079779,Hornchurch Sports Centre,3
-0.121039,51.48921847,Vauxhall Gardens Community Centre,1
-0.07160693,51.52474079,Casa Blue,1
-0.30465603,51.51192087,As Nature Intended,1
-0.116663,51.486237,Big Yellow Self Storage,2
-0.50978122,51.34066683,Lads and Dads,1
-0.12173704,51.51931089,Victoria House,2
-0.16226292,51.46317863,The Battersea Music & Mess Hall,1
-0.136376,51.527835,The Exmouth Arms,1
-0.13928546,51.51358237,Carnaby Street,5
-0.07346744,51.53616536,Laburnum boat club,1
-0.13732374,51.52391016,Robert Dyas,2
-0.1381533,51.51457976,PlayStation - SCEE,3
0.25883317,51.46476277,Dartford Crossing,9
-0.46056118,51.47010769,Virgin Atlantic Clubhouse,5
-0.22165775,51.50708639,Oakley,1
-0.11943736,51.51148623,Disney presents THE LION KING,2
-0.08426428,51.50376071,London Bridge (LBG) to Brighton (BTN) Train,1
-0.16809864,51.49051683,Tom's Kitchen,1
-0.48137873,51.34979976,Byfleet & New Haw Railway Station (BFN),2
-0.0911676,51.50852783,Cannon Street,2
0.02753019,51.46182839,Kidbrooke Railway Station (KDB),1
0.07750679,51.53569494,The Broadway Theatre,1
-0.162029,51.491324,Sejour Hair,1
-0.13334908,51.527146,Grant Thornton House,1
-0.12685776,51.43750388,Perfect Blend,4
-0.08116364,51.51628082,Heron Tower,1
-0.058288,51.475445,The French Kingdom,1
-0.140984,51.515566,Miss Selfridge,1
-0.07882216,51.51923961,RBS,4
-0.12688354,51.53350097,Javelin Train,7
0.1284997,51.61324027,Hainault Forest Country Park,1
-0.14383977,51.61592967,Frank's,1
-0.09391455,51.63516375,The Green Dragon,1
-0.08936519,51.51946283,CityPoint,1
0.13364911,51.46355294,Bexleyheath Railway Station (BXH),1
-0.38316408,51.47195053,Hounslow west station bus stop a,1
-0.114743,51.498578,National Dyslexia Assoication (DNA),1
-0.12498021,51.50126964,Portcullis House,3
-0.22384418,51.49353379,Smile For Life Dental Clinic,1
0.01561498,51.57233669,Green Man Roundabout,4
-0.2458054,51.4834307,Leg'O Mutton Reservoir,1
-0.11972347,51.46356506,The Duke of Edinburgh,1
-0.05262576,51.41519902,whateley road,1
-0.0693512,51.31763153,Warlingham School and Sixth Form,1
-0.11671901,51.50650542,Queen Elizabeth Hall,3
-0.31714439,51.34889555,Chessington World of Adventures,3
-0.07050455,51.463845,The Gowlett,1
-0.11071945,51.50381566,Waterloo East Theatre,1
-0.00298954,51.48510045,Crowleys Wharf,1
-0.07827759,51.51894465,Pilpel Falafel,1
-0.129254,51.499592,Magnetise Media,1
-0.10932478,51.51988759,SMWLDN 2012 HQ,3
-0.32196673,51.53654212,Technicolor Perivale Park,2
-0.140689,51.538208,Getty Images,1
0.01720017,51.50601106,Wake Up Docklands,1
-0.04853725,51.49362192,The Yellow House,1
-0.14452815,51.53768056,Capoeira União @ Fitness First Camden,1
-0.1339817,51.50839522,Post Office (inside Ryman's),2
-0.13091159,51.56867072,St Johns Way,1
-0.298739,51.513586,The Sir Michael Balcon (Wetherspoon),1
-0.56134118,51.56099361,Melrose house,1
-0.14430899,51.51408537,Jalouse,2
-0.13638496,51.50935679,Le Méridien Piccadilly,2
-0.149678,51.65711939,Trent Park Café,1
-0.15212427,51.51025105,34 Restaurant,1
-0.10273933,51.52284332,EC1 Noodle Express‎,1
-0.30594447,51.498766,Sam's Great Tasting Chicken,1
-0.131104,51.51413197,Club49,1
-0.46120144,51.34706536,David Lloyd Racquet And Fitness Club,2
-0.01478434,51.5369665,Olympic Athlete's Warm Up Track,1
-0.00696382,51.54339277,Victoria's Secret,9
-0.52102069,51.43433302,IBM Staines (Lotus Park),2
-0.214607,51.449649,The Ineson Laundromat,1
-0.07913589,51.44539505,Dulwich Park,4
-0.08632421,51.51008463,The Monument,1
-0.154727,51.517542,Anthony Yacomine,1
-0.13004356,51.5096717,Radisson Blu Edwardian Leicester Square Hotel,1
-0.10022641,51.505238,PlusTwo,1
-0.30499935,51.51377707,Ealing,1
-0.14295101,51.52441871,Carat,3
-0.20554514,51.51581097,The Notting Hill Bookshop,2
-0.225797,51.510253,SPUR BBC Television Centre,1
-0.03643,51.455904,Jam Circus,1
-0.144732,51.537743,The Spread Eagle,1
-0.07775187,51.52048013,SapientNitro,5
-0.45185566,51.53213468,Hillingdon Fire Station,2
-0.11994839,51.53077313,The Big Chill House,2
-0.16484185,51.51664608,colbah,1
-0.13501898,51.49957588,Bruno's Cafe,4
0.028946,51.408709,Bromley Cricket Club,1
-0.078649,51.37508734,Sandilands Tram Stop,2
-0.14159796,51.51517388,Oxford Circus Bus Stop,1
-0.19405258,51.48966881,Chelsea House,1
-0.14498683,51.51832439,Chandos House,1
-0.00920846,51.48196521,Admiral Hardy Pub,1
-0.16431481,51.58651648,The Old White Lion,1
-0.2211535,51.50719323,Tapas Revolution,1
-0.148199,51.510344,Michel Perry,1
-0.16767334,51.462613,Superdrug,2
-0.33409595,51.5917358,Harrow & Wealdstone Railway Station (HRW),9
-0.24348021,51.53188106,Willesden Junction Railway Station (WIJ),4
-0.12753367,51.5032398,10 Downing St.,1
-0.075046,51.519779,Cafe Caribbean,1
0.179468,51.577591,US Embassy,1
-0.09784954,51.37304447,My PT Studio,1
-0.11659363,51.53641642,Cali Food & Wine,2
-0.363704,51.478703,"Park Grand ""Heathrow""",1
-0.1454015,51.49452392,Garfunkel's,4
-0.11865378,51.51807665,Citadines Holborn-Covent Garden,1
-0.39615691,51.66365849,Watford Junction Railway Station (WFJ),18
-0.19309636,51.51293161,The Prince Edward,2
-0.15389544,51.6192069,Bethune Park,1
-0.12686849,51.50880256,St Martin in the Fields,1
-0.11539266,51.57057904,The Old Dairy,2
-0.17146826,51.49681475,Victoria and Albert Museum (V&A),12
-0.27154043,51.6579312,Nimika Best Food And Wine,1
0.0522345,51.45525431,Wimpy,3
-0.1188755,51.53571188,Copenhagen Primary School,1
-0.07715924,51.50318447,Tower Bridge / City Hall Bus Stop,1
-0.07759094,51.52465902,Shoreditch,1
-0.25284383,51.49599746,ArtsEd (Arts Educational Schools London),1
-0.13897518,51.51128374,Godiva,1
-0.12297559,51.43614379,Maconha's house,1
-0.0330019,51.58246994,Manze's,1
0.056658,51.431735,Indoors Watching Top Of The Pops,1
-0.15097618,51.56957459,Flask Tavern,1
-0.16149044,51.48580589,Foxtrot Oscar,1
-0.057857,51.499271,The Club St Peters,1
-0.10505676,51.5199327,Gymbox,3
-0.12527297,51.51606237,Blippar,1
-0.02630711,51.4788171,Deptford Railway Station (DEP),1
-0.22586346,51.60725021,PowerLeague Mill Hill,1
-0.03048021,51.54433883,"Hackney Wick, Chapman Rd stand",1
-0.09531038,51.487256,Bagel King,1
-0.14566995,51.496694,Reply UK Ltd,4
0.17273426,51.57594937,Cottons Park,1
-0.17900946,51.55644573,Everyman Hampstead,2
-0.4680562,51.35465803,Mercedes-Benz World,1
0.05203464,51.45520812,Terry's All Locks,3
-0.07561562,51.52150554,Hawksmoor Bar,1
-0.09967731,51.4781806,"Ed's bed, baby. Ed's bed",1
-0.34457359,51.45023713,London Broncos RFL,1
-0.150671,51.509792,Jo hansford,1
-0.14456034,51.49535863,London Victoria Railway Station (VIC),55
0.04680991,51.62614957,Buckhurst Hill Underground Station,1
-0.548989,51.581868,Gerrards Cross C.E. School,1
-0.31342423,51.47854078,Syon Park Garden Restaurant,1
-0.25293292,51.4884398,Fullers Brewery,1
-0.1826253,51.52139928,Little Venice,1
-0.19254312,51.41582498,Wimbeldon,1
-0.0838173,51.52598197,Giddy Up At Floripa,1
-0.089424,51.443247,Beauberry House,1
-0.02239108,51.5061782,Cat & Canary,1
-0.01240253,51.54114389,London 2012 Water Polo Arena,1
-0.306334,51.51302,At Thai Canteen,1
-0.16248575,51.50051685,Halifax Bank,2
-0.191582,51.48897192,The Pembroke,1
-0.16147312,51.49865375,The Tea Room,1
-0.26594639,51.44528806,White Lodge,1
-0.262362,51.491973,Sam's Brasserie,2
-0.1384449,51.54190458,Grand Union Camden,1
-0.22133896,51.50738498,Vue Cinema,19
-0.145443,51.512797,Mews of Mayfair,2
-0.16593109,51.55371618,Royal Free Hospital,1
-0.07470489,51.5167949,Petticoat Lane Market,1
-0.11679788,51.50157621,Forum Magnum Square,1
-0.14921533,51.53812192,Cecil Sharp House,1
-0.45833588,51.47004952,Singapore Airlines SilverKris Lounge,1
0.00924289,51.46567513,Shepherd Foods (London) Ltd,1
-0.131384,51.511097,St John Hotel Restaurant,1
-0.13835496,51.53467942,KOKO,4
-0.48666,51.47079804,Caviar House & Prunier Seafood Bar,1
-0.13497707,51.52063603,Yumchaa Teas,2
-0.18879071,51.64683235,BP Connect Petrol Station,2
-0.08475803,51.51268541,Club Quarters,2
-0.16185706,51.41713639,Gorringe Park Avenue,1
-0.0139904,51.50489601,London 2012 HQ,1
-0.139616,51.49856,The Colonies,4
-0.125841,51.5137059,Facebook UK,2
-0.12381077,51.48584598,Vauxhall Railway Station (VXH),9
-0.04724261,51.60909327,Bus Stop L,3
-0.02818465,51.5060246,Four Seasons,1
-0.23477069,51.57018619,A406,1
0.18137983,51.44868488,The Charlotte,1
-0.17830424,51.51789899,Paddington Underground (Hammersmith & City and Circle lines),4
-0.06255097,51.53169428,Rocket Barber Shop,1
-0.196721,51.446656,Haart,1
-0.1566659,51.51605077,Home House,3
-0.33966,51.36002,The Hare & Hound,1
-0.14839053,51.51455826,Ben's Cookies,2
-0.08242965,51.51299588,Lloyd's of London,4
-0.141514,51.492123,Stanley House,1
-0.0265646,51.4442449,Catford Railway Station (CTF),2
-0.14456982,51.52683607,Cambridge Gate,1
-0.47228336,51.6392486,Brown Sugar Deli,1
-0.175944,51.511825,London Elizabeth Hotel,1
-0.13151407,51.51406418,Milkbar,1
-0.099257,51.51454926,Paternoster Chop House,2
-0.07106101,51.51768905,1 Brick Lane,1
-0.13089,51.511768,Oriental Delight,1
-0.09982109,51.50823496,Tate Modern Grass Square,5
-0.26603222,51.49200538,Turnham Green,1
-0.14473972,51.58970321,Toffs Fish & Chips,1
-0.33435345,51.40303424,Hampton Court Palace Gardens,1
-0.227108,51.49225922,Hammersmith,4
-0.144675,51.510352,Regus,1
-0.16988808,51.52605848,Lisson Grove,2
-0.1679197,51.51981087,Edgware Road Underground Station,4
-0.04843492,51.52807479,Bethnal Green,1
-0.13961225,51.51117014,Momo,2
-0.28978586,51.49274686,EMC Brentford,1
-0.23148537,51.49289381,Holiday Inn Express,6
-0.13320923,51.52826351,Virgin 1st Class Lounge,4
-0.12256622,51.51515248,New London Theatre,2
-0.14488817,51.51290883,Bond Street,3
-0.45476573,51.65302901,"The Green, Croxley Green",2
-0.12423898,51.52997624,"Kings Cross - Hammersmith & City, Circle, and Metropolitan Lines - Westbound Platform",3
-0.195954,51.572593,The Refectory,1
-0.123018,51.51458,Gleam Digital Ltd,1
-0.136303,51.465866,Bread & Roses,1
-0.11699796,51.50581091,Southbank Centre,3
-0.08561611,51.5102115,Monument Wenlock,1
-0.08050919,51.41957649,Joanna's,1
0.09129638,51.42585383,Sidcup Sports Club,1
0.2707849,51.43766782,T.G.I. Friday's,1
-0.13710469,51.56059115,Theatre Of Wine,1
-0.17423682,51.49410889,South Kensington and Chelsea,3
-0.0830523,51.44652355,BMF Dulwich Park,1
-0.479742,51.545811,R. V. Ralph,1
-0.06572485,51.41239018,Anerley Railway Station (ANZ),2
-0.18966685,51.33733392,HMP Highdown,1
-0.10245905,51.54913472,Highbury Fields,3
-0.10514259,51.51359012,De Palo's,1
-0.09778799,51.51545227,BT Centre,2
0.18112626,51.451003,Create Inn,1
-0.202994,51.537404,Cc's,1
-0.132204,51.511603,Wong Kei,3
-0.13973236,51.51226808,Regent Street,7
-0.08887,51.513098,One Lombard,1
-0.48837662,51.4728564,Gate A5,1
-0.09050846,51.50071851,Soho Gyms Borough,2
-0.44407921,51.52896771,Tamara Lounge,1
-0.34693322,51.53621956,Greenford Flyover,1
-0.19539356,51.50770075,The Life Centre,1
-0.111148,51.487306,Madeira Star,1
0.05667879,51.43170581,Eating A Sandwich,2
-0.33628852,51.58289629,Prosperity - HQ,6
-0.103859,51.535453,Chipotle,1
-0.108439,51.540454,The Drapers Arms,1
-0.06369217,51.65710517,Enfield town football club,1
-0.13865892,51.45509273,The Abbeville,1
-0.143214,51.51116431,Vogue Fashion Night London Bond Street,10
0.17466611,51.39674752,Asda Swanley,1
-0.1261282,51.5006218,Westminster Hall,1
-0.01833181,51.50206411,Goodman,1
-0.12684703,51.51927178,British Museum,21
-0.1313108,51.51417209,Carlisle Arms,1
-0.127603,51.5070594,Little Frankie's,1
-0.36400795,51.46761675,Treaty Shopping Centre,1
-0.1284188,51.51393398,Yahoo! UK,5
-0.434156,51.525244,The Wishing Well,7
-0.42032018,51.50307838,Hayes & Harlington Railway Station (HAY),1
-0.1535486,51.52695818,Rose gardens Regents Park,1
-0.138343,51.502619,The Mall - North,2
-0.11621475,51.4597829,Brixton,3
-0.27979732,51.65286304,Elstree & Borehamwood Railway Station (ELS),4
-0.04142404,51.53201454,Fat Cat Cafe Bar,1
-0.08021349,51.52433117,The Old Blue Last,1
-0.04078099,51.35637943,Addington Palace,1
-0.10260879,51.50610437,The Fat Cat of Southwark,1
-0.15851466,51.49841772,Jumeirah Carlton Tower,4
-0.073694,51.5061,St Katherine Pier,1
-0.04751784,51.65596341,Durants Park,1
-0.171249,51.64974,The Lord Kitchener,1
-0.22958175,51.55158906,Nallely's House,1
0.2442956,51.45395343,Dartford Crossing Toll Booths,2
-0.13108492,51.51088591,Joy King Lau,2
-0.25978623,51.49252061,GAIL's Artisan Bakery,1
-0.54459432,51.41715092,Great Fosters,1
-0.16009569,51.43565795,The Wheatsheaf,1
-0.20544,51.421635,Wimbledon Tram Stop,1
-0.20521515,51.41964751,Bill's,1
-0.13981819,51.51646108,Bagelmania,4
-0.26293,51.61171,Mill Hill,1
-0.18274234,51.49460533,Frances King School of English,1
-0.19350529,51.50294595,Elephant & Castle,1
-0.11547446,51.46125352,Ritzy Cinema,3
-0.28031134,51.37846347,Charrington Bowl,1
-0.058371,51.527259,The Sun Inn,2
-0.14629841,51.5152326,House of Fraser,8
-0.383444,51.62766811,Angel Technology Services,1
-0.13928175,51.51925175,The Green Man,1
-0.04546072,51.62736601,Cart Overthrown Pub,1
-0.42783916,51.46374285,Myrtle Avenue (spotting location),1
-0.38997173,51.38091503,Esher Rugby Club,1
-0.06772041,51.53374979,Haggerston Park,2
-0.157049,51.492647,The Botanist,2
0.027938,51.587897,Ark Fish Restaurant,1
-0.13469517,51.51395067,Sounds of the Universe,1
-0.118829,51.533591,The Driver,1
-0.09355,51.512988,Ye Olde Watling,1
-0.25865078,51.48366126,Chiswick House & Gardens,1
-0.379271,51.465031,"Stains Road, Hounslow, LondonUK",1
-0.205551,51.536299,Jack's Queens Park,2
-0.19259916,51.5001472,EMI Music,2
-0.13202906,51.51705528,Hakkasan,6
-0.14917144,51.51442299,Bond St,4
-0.461001,51.471088,Finnair: London --> Helsinki,2
-0.101548,51.359207,Bloomers Cafe,2
-0.08777998,51.50816318,London Bridge,7
-0.17527518,51.51222625,Lancaster Hotel,2
-0.138146,51.508828,Hatchards,1
-0.13229725,51.5103571,Dstrkt,1
-0.35784826,51.45334587,Jolly's Tandoori Restaurant,1
0.00315428,51.50285246,O2 Arena,8
-0.340029,51.458804,Tescos Petrol Station Twickenham,1
-0.11728764,51.50679256,Festival Pier,1
-0.21209638,51.27027873,BP Connect,1
-0.266849,51.49272829,The Old Pack Horse,1
-0.18479347,51.51202771,Malaysian Hall Canteen,1
-0.13659954,51.53401675,Oakley Square,1
-0.00989199,51.48218468,The Gipsy Moth,2
-0.01182536,51.53948956,Orbit Circus,4
-0.141745,51.514005,The Slug and Lettuce,6
-0.00566483,51.54302558,Westfield Stratford City,83
-0.07600324,51.56930236,Guinness Trust Stamford Hill,6
-0.361767,51.587598,Uxbridge College.,1
-0.00794444,51.54399352,Lego,2
-0.237182,51.502569,Cathnor Park,1
-0.45945168,51.47245542,Gate 24C,1
-0.12196541,51.51747589,My Old Dutch,1
-0.24435997,51.50249182,Leiths School of Food & Wine,1
-0.00383726,51.53267095,Greenway Transport Hub,6
-0.01032114,51.48155662,Tai Won Mein,1
-0.3250296,51.5099267,West Ealing Broadway,1
-0.20615157,51.445114,Chanteroy,1
0.25825594,51.43560917,Darent Valley Hospital,1
-0.22863296,51.43598576,Trip5witch,1
-0.103859,51.522922,The Artisan,1
-0.074521,51.556048,Bar-ish,1
-0.184215,51.485971,The Hollywood Arms,1
0.12638569,51.54019633,Becontree Underground Station,1
-0.17741203,51.50098245,Royal Albert Hall,11
-0.243394,51.550401,Medicanimal,1
-0.152547,51.53720319,Regents Canal Footbridge,1
-0.44806197,51.48123721,Nene Road Busstop,1
-0.137811,51.50903,BAFTA Members Bar,1
-0.31259537,51.41475898,Hampton Wick Railway Station (HMW),1
-0.2108905,51.500445,London Visitors Hotel,1
-0.15269279,51.51435128,Selfridges & Co,43
-0.08742697,51.54648814,Ballspond Rd & Buckingham rd,1
-0.11310083,51.5364056,Arcrose Newsagent,1
-0.41834442,51.57795983,Wenzel's Ruislip,1
-0.124,51.506211,National Liberal Club,1
-0.107219,51.524466,Zaha Hadid,1
-0.08555248,51.51723792,The JM Group,1
-0.02308473,51.67469517,Excitech Ltd.,1
0.18921375,51.56645355,B&Q,1
-0.10504603,51.62516322,Aladdin's,1
-0.187091,51.516113,Marhba,1
-0.15741572,51.52283147,"221B Baker Street, Westminster, Greater London",1
-0.15683413,51.5226564,Baker Street Underground Station,6
-0.00630856,51.48266574,University of Greenwich (Greenwich Maritime Campus),3
0.04480362,51.57677616,The Red House Beefeater,1
-0.004597,51.542642,Pull and Bear,1
-0.16288519,51.49916581,Harrods,61
-0.1288265,51.50183821,Churchill Museum & Cabinet War Rooms,1
0.06922245,51.48988943,Woolwich Arsenal Railway Station (WWA),3
-0.12664139,51.45947527,Grand Union Brixton,2
-0.08422914,51.51537059,salesforce.com,2
-0.40964597,51.327004,La Capanna,1
-0.15552521,51.44481998,Balham Farmers' Market,1
-0.114238,51.49990455,Walrus Social,1
-0.20530633,51.41999512,ODEON,5
-0.0198698,51.52791642,Bow Bells,1
-0.3782773,51.50599121,Southall Railway Station (STL),1
-0.08507245,51.51982016,The Fleetwood,1
-0.21800995,51.50510971,Shepherd's Bush Bus Station,3
-0.13109735,51.514498,Kaslik,1
-0.09012222,51.58252327,Chestnut's Park,1
0.225813,51.561386,Robert Beard Youth House,1
-0.232356,51.485954,The Bridge Pub & Dining Room,2
-0.110816,51.522001,Clerk and Well,1
-0.45842171,51.46894009,Emirates Lounge,5
-0.132163,51.515576,Nude Espresso,7
-0.1426506,51.53907526,Camden Town,11
-0.12475949,51.5283678,Hastings St.,1
-0.199165,51.4987725,Odeon Kensington,1
-0.39584142,51.59784895,Sync,1
-0.01941383,51.50102587,Hilton London Canary Wharf,1
-0.0908947,51.51063885,The Walbrook Building,1
-0.138976,51.513077,Sacred Café,1
-0.176187,51.484152,Triyoga Chelsea,4
-0.079082,51.513744,The Association,1
-0.01845573,51.44701809,The London & Rye  (Wetherspoon),1
-0.28461456,51.59420193,The Regency Club,1
-0.07778373,51.52675596,Shoreditch High Street,2
-0.20054877,51.47436335,The White Horse,4
-0.167405,51.49746,Lord's Food and Wine,1
-0.30323653,51.50662388,University Of West London,1
-0.1001215,51.51472517,Paternoster Square,1
-0.10623874,51.53338332,"Halifax, Islington",1
-0.16260167,51.47258774,The Lighthouse,1
-0.21723175,51.35752473,Cheam,2
-0.2125889,51.65537181,Queen Elizabeth School For Boys,2
-0.22397659,51.57660188,The Arsenal Store,2
-0.14992784,51.44378648,Sistova Road,1
-0.1924324,51.55828982,West Heath Lawn Tennis Club,1
-0.12697956,51.51182643,Summit Media,1
-0.305346,51.504894,Munson's coffee & eats,1
-0.01748096,51.49740947,41 Millharbour,1
-0.17706871,51.51651449,Paddington Railway Station (PAD),57
-0.51512897,51.40386083,Detonator,1
-0.54179013,51.29444795,The New Inn,1
-0.10225227,51.53885002,Pasha Restaurant,1
-0.17793775,51.53208128,Abbey Road Studios,4
-0.00681951,51.49237125,Pier St Bus Stop,1
-0.33651836,51.58065788,St Ann's Shopping Centre,3
-0.13644934,51.51364354,Apartment58,1
-0.17584482,51.5087245,Peter Pan Statue,1
-0.300359,51.411619,Woo Woo,1
-0.13222218,51.51272713,Amorino,2
-0.095386,51.49459001,New Kent Road,1
-0.35535069,51.47088589,Asia Kebab House,1
0.03461135,51.53454524,Green Street Market,1
-0.14176548,51.51403747,Quiksilver,1
-0.399261,51.578524,Wenzel's Eastcote,1
-0.33782959,51.4748612,Golden Grill,1
-0.0858736,51.50489601,London Bridge Railway Station (LBG),22
-0.13062358,51.51267538,Curzon Cinema,3
-0.13893642,51.51502573,Photographers' Gallery,1
-0.18878677,51.42538577,Haydons Road Railway Station (HYR),1
-0.123412,51.542574,Tileyard Studios,1
-0.18086481,51.51442894,Park Grand Hotel,1
-0.20792484,51.43734337,Wimbledon Park,3
0.044842,51.451461,Bus Route 561,2
-0.07047406,51.53965938,The Tomlinson Centre,1
-0.13035536,51.51071898,The Penthouse,2
-0.18661511,51.43139702,Wimbledon Greyhound Stadium,2
-0.00585496,51.50643813,Il Bianco Restaurant,1
-0.24212837,51.46694839,Barnes Railway Station (BNS),5
-0.099878,51.372376,The Spreadeagle,1
-0.10857582,51.50836851,Oxo Tower,3
-0.10007858,51.50225139,Blackfriars Crown Court,2
-0.11523271,51.3370749,Burgers at Blacks,1
-0.06534602,51.53634455,Laxfield Court,1
-0.06057769,51.51956219,Whitechapel Railway Station (ZWL),2
-0.19415829,51.57719193,Golders Green Crematorium,1
-0.13246894,51.50907634,Planet Hollywood,2
0.0300578,51.48193094,After Hours studio,1
-0.48807621,51.47264254,Baggage Reclaim,2
-0.206818,51.537918,New State Entertainment Ltd,1
-0.13391331,51.52738269,Virgin Train Crew Mess Room,3
0.19258797,51.27255818,The Sennockian (Wetherspoon),1
-0.1109332,51.5082904,"The Southbank, Observation Point",1
-0.22878069,51.5882089,Hendon Town Hall,1
-0.13837239,51.51167919,Nopi,3
-0.263134,51.508871,The Station House,1
-0.15881073,51.49234096,Peter Jones,1
-0.0756973,51.53151064,Hoxton Railway Station (HOX),1
-0.12953997,51.51987929,Royal Holloway - Bedford Square,1
-0.14136314,51.51545961,Topshop,18
-0.15918097,51.5152874,The Montcalm Hotel,1
-0.2764315,51.50753529,"Ealing, Hammersmith & West London College",2
-0.11359,51.504682,BFI IMAX Quiz,1
-0.37060547,51.41388584,Hampton Library,1
-0.13220824,51.5102343,Grosvenor Casino,1
-0.195038,51.59681,Avenue House Estate,1
-0.297437,51.513203,Edward's Language School,1
-0.13252258,51.51391061,The Crown & Two Chairmen,1
-0.1643014,51.51600708,Edgware Road,1
-0.12009815,51.516093,Kingsway Hall Hotel,6
-0.28620059,51.52700872,Heathcroft,1
0.01022696,51.46473694,St. Mary's Catholic Church,1
-0.13499022,51.46281767,Two Brewers,1
-0.1448822,51.52105425,Royal Institute Of British Architects,1
-0.28433138,51.53250196,Azure House,1
-0.12730837,51.43689527,Fitness First,28
-0.110892,51.50350895,Capital Tower Waterloo Road,1
-0.16539079,51.460908,The Dime Bar & Diner,1
-0.11531353,51.3575926,Hilton Croydon,1
-0.11158555,51.52021143,Gray's Inn,1
-0.21929741,51.49597314,Brook Green,2
-0.45859337,51.38252212,Shepperton Lock,2
-0.08168667,51.65195496,Natwest,2
-0.11007786,51.51301591,Temple Church,1
-0.13400853,51.4628511,Soho Gyms,4
-0.226556,51.494298,hrs.com,3
-0.02260638,51.46914309,Platform 2,16
-0.34242153,51.40362323,Hampton Court Bridge,1
-0.11620223,51.51539902,Hunterian Museum,1
-0.13033871,51.51141158,Prince Charles Cinema,2
-0.21429777,51.45015584,Linstead Way Bus Stop,1
0.07429992,51.55778478,Ilford,3
-0.109446,51.522495,Central Saint Martin College of Art & Design (CSM Uni),1
-0.224576,51.53052284,Kensal Green Railway Station (KNL),1
-0.097025,51.537582,Social Fuel HQ,1
0.27114115,51.43836064,Games Workshop,1
-0.137709,51.510654,So Japanese,1
-0.141066,51.46383941,The Sun,1
-0.17460063,51.50448603,Serpentine Gallery,1
-0.0748438,51.552742,Ruby's,1
-0.19215,51.480246,Kona Kai,1
-0.55736016,51.60799646,Mortimers,1
-0.01952648,51.50481587,One Canada Square,3
-0.15041226,51.50515588,Metropolitan Hotel,2
-0.141223,51.515128,Argyll Arms,1
-0.460193,51.366994,British Volunteer,2
-0.02025604,51.50262539,Obikà Mozzarella Bar,1
-0.14762878,51.51261529,Gordon Ramsay at Claridge's,1
-0.13827324,51.50844864,Fortnum & Mason,5
-0.142619,51.46666,North Street Deli,2
-0.20579222,51.51575423,E&O,4
-0.05589417,51.39120179,Dragon Quest,1
-0.33250809,51.30861839,The Royal Oak,4
-0.0876385,51.52562692,Old Street Underground Station,2
-0.13152705,51.51385909,Garlic & Shots,1
-0.49104986,51.36938526,Crouch Oak Family Practice,1
-0.20096183,51.5209007,Westbourne Park Underground Station,1
-0.21968365,51.50631176,Ca'puccino,1
-0.047281,51.658133,Tantastıc,1
-0.10121204,51.50812883,O2 Arena Indigo2,1
0.045279,51.618065,The Monkhams,1
-0.16892503,51.64840072,Bodens Studios,1
-0.07851596,51.52266899,Enthuse,5
-0.135186,51.513883,Soho Editors Training,1
-0.090054,51.487032,O'Rourke Design,1
-0.12539956,51.51509238,Cafe Mode,1
-0.141713,51.472957,VSOE Stewards Lane Depot,1
-0.132357,51.507487,Sofitel London St James,1
-0.41990519,51.50453539,Clayton Road (Bus Stop M),3
-0.11728003,51.51139299,Fernandez &Wells,1
-0.05955856,51.50333865,Pasha,1
-0.14300616,51.51018619,Georg Jensen,1
-0.11690949,51.5006933,espressamente illy coffee bar,1
-0.00844309,51.54333612,Bumpkin,1
-0.11273861,51.533199,Ega school,2
-0.09208518,51.4686996,Maudsley Hospital,1
-0.31677206,51.51141448,The Gym Ealing,2
-0.120364,51.503544,Waterloo Pier,1
-0.165145,51.550809,Gelato Mio,3
-0.07233381,51.54652187,Hackney CVS,1
-0.11461465,51.5134812,InMobi Official Foosball League 2012,1
-0.14245261,51.4975204,Pure Agency London Offices,1
-0.07513242,51.47444094,lister health centre,1
-0.1240707,51.53141931,"King's Cross, Platform 9¾",1
-0.26518,51.665566,Hertswood Centre,1
-0.4883337,51.47149308,Terminal 5,129
-0.1912849,51.502884,Maggie Jones's,1
-0.48717499,51.47037031,BA Galleries First Lounge,10
-0.211109,51.454137,Mansons Pharmacy,1
-0.1202944,51.5108732,Smollenskys,1
-0.1099322,51.51805496,Pinesoft,1
-0.13290882,51.52855719,London Euston Railway Station (EUS),90
-0.132898,51.51002,Coventry House,1
-0.30394793,51.3924446,Surbiton Railway Station (SUR),6
-0.25242826,51.46744567,Chez Kamen,1
-0.10927764,51.53283601,The Hobgoblin,1
-0.13371,51.512389,The Escape,2
-0.22751868,51.50601807,Gap Photography,1
-0.00859675,51.48359683,Frankie & Benny's Greenwich,1
-0.173831,51.49498656,Tombo,1
-0.07158965,51.52254508,Exit,1
-0.30594287,51.40821378,Guildhall 2,4
-0.30401766,51.455534,Stein's Bavarian Restaurant,1
-0.11276007,51.50313295,London Waterloo Railway Station (WAT),66
-0.17571,51.405642,Dolphin Swiming School,1
0.26505455,51.62665347,Weald Country Park,1
-0.12740813,51.52348345,Royal National Hotel,2
-0.141253,51.509648,Tiffany & Co.,3
-0.15925971,51.49124756,Manicomio Restaurant,2
-0.133274,51.51014315,hmv,2
-0.12666464,51.53238829,Fine Burger Co.,1
-0.11560067,51.46190204,Bus Stop R,1
-0.51326752,51.40359646,Thorpe Park,19
-0.12577,51.525569,Judd Books,2
-0.102498,51.37614,Centrale Shopping Centre,1
-0.05578517,51.52541322,Maureen Paley,1
-0.03810883,51.53736691,Victoria Park,8
-0.08520305,51.51855744,Costa,7
-0.21655083,51.46085245,Fez Club Putney,1
-0.172491,51.650066,Bikestrobe,1
-0.06610674,51.51605429,Lite College,4
-0.081222,51.527095,The Breakfast Club,12
-0.183801,51.5134339,The Launderette Centre,1
-0.489469,51.471116,The Five Tuns (Pub & Kitchen),1
-0.11973442,51.52893883,Monto Water Rats,1
-0.3926003,51.65502633,John Lewis Espresso Bar,1
-0.13854398,51.51574704,Soccer Scene,2
-0.38802463,51.65503242,Watford St.,1
-0.35817368,51.45291939,Whitton Cafe,1
0.02705812,51.47551609,Sun in the Sands,1
-0.1628127,51.49990019,Harrods Foodhalls,1
-0.12759268,51.50927666,National Portrait Gallery,4
-0.15069723,51.54401978,BetClic London,1
-0.16073942,51.51377707,The Tyburn (Wetherspoon),3
-0.083119,51.501919,Team London Bridge,1
-0.12717375,51.51243651,Dishoom,1
-0.00989199,51.48132944,Beachcomber Seafood Cafe,1
-0.07580713,51.49934146,Maltby Street Market,1
-0.484769,51.364543,Weybridge Garden Centre,1
-0.08604527,51.47333756,Camberwell Crypt,1
-0.51342262,51.4049173,"Seven, Thorpe Park",2
-0.475234,51.51277161,Al falah Muslim Centre,1
-0.00822499,51.54246312,Cabana,1
-0.09039252,51.50689129,The Golden Hinde,2
-0.05591907,51.55768857,The Clapton Hart,1
-0.133301,51.520515,Sheridans Solicitors,1
-0.07455445,51.5197505,St. John Bread and Wine,2
-0.124913,51.524509,Marquis Cornwallis,1
-0.14086962,51.51720884,BlikBook.com,6
-0.13712345,51.51194285,Graphic,1
-0.07857263,51.52373115,Village Underground,5
-0.142792,51.51775,Saint Georges Hotel,2
-0.26304246,51.33706417,Rainbow Centre,1
-0.06637996,51.60265598,White Hart Lane Stadium,2
0.17835287,51.451683,The Bear & Ragged Staff,1
-0.09920129,51.51280739,Grange St. Pauls Hotel,1
-0.16923653,51.33821736,Oaks Park,2
-0.1794054,51.51352034,Bayswater Medical Centre,1
-0.22380777,51.43584256,Parkside Hospital,1
-0.2710185,51.49048703,Wellesley Road,1
-0.108216,51.526421,Sweet,1
-0.35821438,51.45333835,Admiral Nelson,1
-0.37855051,51.47030041,Windsor Castle,1
-0.10852218,51.51064553,HMS President (1918),1
-0.16065055,51.5138533,Marble Arch Tower,1
-0.13009303,51.51674076,Hillsong Church London,2
-0.29743781,51.54501981,"London Road, Wembley HA0",1
-0.14378501,51.49535113,West Cornwall Pasty Company,1
-0.45036244,51.47323307,The Tin Goose (Pub & Kitchen),2
-0.18808219,51.43304835,Wimbledon Art Studios,1
-0.19250124,51.41510185,Morden Road / South Wimbledon Bus stop,2
-0.13450143,51.50998803,Piccadilly Circus,40
-0.22848129,51.56725383,Wing Yip,1
-0.07040342,51.50678682,Dickens Inn,2
-0.10243893,51.54481379,Union Chapel,3
-0.09866531,51.50404236,TfL Bus RV1,2
-0.05602598,51.50440684,Wapping Railway Station (WPE),1
-0.256602,51.451161,London Duathlon,2
-0.07929683,51.50506343,The Scoop at More London,2
-0.12148312,51.5187307,Holborn Whippet,2
-0.15692395,51.52304734,Wenzel's Baker Street Station,1
-0.10902198,51.50398475,Platform C,2
-0.15080197,51.51545794,Giraffe Burgers,2
-0.34034986,51.44480002,Twickenham Green,1
-0.33478978,51.47192091,St. John's Road,1
-0.198987,51.651925,Crompton House Apartments,1
-0.076375,51.548822,Vortex Jazz Club,1
-0.11866386,51.51227088,Cafe Fratelli,1
-0.07862091,51.50959718,The Liberty Bounds,1
-0.09665608,51.50873578,Bankside Pier,1
0.032016,51.507762,Sitting Volleyball,1
-0.019171,51.475842,Merryweather Place,1
-0.08326426,51.50613703,Hay's Galleria,2
-0.18392667,51.38054953,St Helier Hospital,3
-0.28091731,51.52531826,Chiquito,2
-0.14179545,51.52140854,Streamtime UK,1
-0.14103,51.51757,Gaylord,1
-0.41909771,51.50598902,Hevalo Cafe,2
-0.157311,51.52663227,Regents Park Bandstand,2
-0.02437592,51.50768739,The Ledger Building (Wetherspoon),1
-0.20252287,51.54561446,The North London Tavern,2
-0.11843424,51.52042333,Lacon House,1
0.08432865,51.4897742,Plumstead Railway Station (PLU),1
-0.12634277,51.53120029,St Pancras Intl. Station (STP) - Domestic Lines,46
-0.114309,51.504081,Velti,1
-0.12834339,51.52461702,Tavistock Hotel,1
-0.07941484,51.51644773,Devonshire Square,1
-0.03589958,51.47523409,Goldsmiths Library,2
-0.09967731,51.4781806,Bishop's Mead,1
0.03695467,51.49773963,Thames Barrier,1
0.190619,51.464906,On The Slade Green Loop Waiting For The Green Signal Clearence To Continue To Barnhurst Station,2
-0.14197141,51.51522777,H&M,4
-0.10316849,51.53613899,Islington Green,3
-0.16868822,51.42734321,Peperoncino Pizzeria,1
-0.41895879,51.50597438,"Halifax, Hayes",1
-0.43450221,51.48669453,Manse Close Bus Stop B,1
-0.3169781,51.58181326,Kenton Railway Station (KNT),1
-0.26839581,51.33274511,The Ashley Centre,1
-0.022844,51.479103,Sue Godfrey Nature Reserve,1
-0.18307397,51.4909098,Noor Jahan,1
-0.13451815,51.50989933,Anteros (Eros),3
-0.33349514,51.39077092,Thames Ditton,1
-0.104778,51.531601,Pasta & Expresso,1
-0.119622,51.516236,Sushi Hiroba,1
-0.136348,51.513581,Star and Garter,1
-0.14954505,51.5167738,Holiday Inn,26
-0.39657842,51.66325177,Harry Potter Studio Tour Shuttle Bus,2
-0.36093703,51.57069993,The Beacon Centre,2
-0.02212125,51.542903,The White Building,1
-0.12461259,51.50758473,Trafalgar Monument,1
0.03222159,51.58121164,N55,1
0.06913662,51.49383567,Firepower: Royal Artillery Museum,1
-0.24305047,51.44958297,Roehampton Fitness &Leisure,1
-0.05422354,51.41934232,Penge East Rail Railway Station (PNE),1
-0.14295101,51.5242318,glue Isobar,1
-0.11506,51.507352,"Watch This Space, National Theatre",1
-0.20692706,51.5072333,Melograno Alimentari,1
-0.017173,51.500357,Pan Pensualnia,1
0.14681339,51.55708915,TfL Bus 499,7
-0.08102203,51.51614763,Duck & Waffle,3
-0.27982288,51.41119074,Fat Boy's Cafe,1
-0.09965196,51.524494,Women's Resource Centre,1
-0.19817469,51.498626,MONARCH HOUSE,1
-0.12696505,51.50943692,Chandos,2
-0.301564,51.463793,Perfect Smile Dentist,1
-0.1904106,51.50195276,Shabu Shabu Bar,1
-0.129054,51.511324,Official Half Price Booth,2
-0.07475853,51.39717744,Norwood Junction Railway Station (NWD),2
-0.165415,51.472138,The Latchmere,1
-0.0645707,51.52024664,78 Cheshire Street,1
-0.40086655,51.66146912,Flanders Court,4
0.26523128,51.60926093,Mizu,1
-0.12742303,51.52825296,Hamilton House,1
-0.07862091,51.50786101,Tower of London Riverside Walk,2
-0.076226,51.526187,Calvert  22,1
-0.382857,51.512171,Creams,2
-0.180013,51.499835,Boston University-The Crofton,1
-0.14894625,51.50385455,Hard Rock Cafe London,9
-0.4651165,51.47379198,Gate 40,1
-0.140836,51.496704,Bar 171,1
-0.12037,51.51301725,Shrek The Musical,3
-0.20497951,51.41503205,Kingstonisonfire,1
0.12274476,51.38366331,111 Burrfield Drive,1
-0.33289433,51.30778673,Thistle Computers,6
-0.05260139,51.48719189,Supernova Korfball Home Game Venue,1
-0.13560176,51.51247173,Wagamama,18
-0.130335,51.5172295,Central YMCA Club,8
-0.11208188,51.48119386,Oval Farmers Market,1
-0.10325432,51.52240273,We Are Social,1
-0.15573978,51.5175026,Apostrophe (Baker Street),1
-0.15949385,51.49918944,Giorgio Armani,1
-0.0786301,51.50010956,Constancia Argentine Grill,2
-0.130849,51.510262,Angus Steakhouse,5
-0.318499,51.658025,BattleAxes,1
-0.27588934,51.54397641,Stonebridge Park Railway Station (SPB),2
-0.07588863,51.49952647,La Grotta Ices,1
-0.12274041,51.51206666,Jamie Oliver's (Union Jacks),1
-0.102102,51.546097,Hen and Chickens,1
-0.150913,51.515329,Cocochan,2
-0.140716,51.517379,The Social,2
-0.130902,51.513356,Tapasia,1
-0.16014397,51.50163529,Harvey Nichols,7
0.10947025,51.52173009,Bellway Homes,1
-0.13548374,51.52244278,Pollarize,2
-0.12283444,51.51134664,Jubilee Hall Gym,1
-0.08268084,51.47385029,Peckham Rd,1
-0.140317,51.51623396,Marketplace,2
-0.44322709,51.56447913,Coach and Horses,4
-0.17022591,51.48860751,HTB Onslow Square,1
-0.328581,51.445197,Diamond Jubilee Gardens,1
-0.13397976,51.50914299,Apollo Cinemas,1
-0.13015687,51.51122645,Leicester Square Theatre,1
-0.00269719,51.48011336,London 2012 - Greenwich Park,6
-0.07989468,51.52559906,The Comedy Cafe,1
-0.14088035,51.51548297,Urban Outfitters,3
-0.3878988,51.62026509,South Oxhey,1
-0.0604248,51.51934522,Whitechapel Underground Station,1
-0.30028343,51.39346976,TfL Bus K2,1
-0.006891,51.52739,Three Mills Studio Stage 11,1
-0.02433346,51.53362782,Bow,1
-0.013071,51.583977,Vestry House Museum,1
0.06152774,51.53068324,Asian Seventh Day Adventist Church,1
-0.01513285,51.54927239,The Street Market,2
-0.15653017,51.5141856,Thistle,6
-0.163657,51.52234,Sports Bar And Grill,1
-0.14226598,51.51344604,Pollen Street Social,2
-0.23034469,51.54062271,Willesden Sports Centre,3
-0.12230337,51.58067654,Jade Palace,1
-0.06840706,51.47058418,Peckhamplex,3
-0.3122917,51.6852003,Shenley primary school and nursery,1
-0.13117343,51.5171571,Micro Anvika,1
-0.22704829,51.49291625,Poundland,2
0.21959782,51.5922157,499 to heath park estate,2
-0.02104998,51.50494944,Canary Wharf DLR Station,5
-0.17369444,51.49470102,Billy's Grill & Steakhouse,1
-0.18007278,51.51929181,Sheldon Square,2
-0.1139617,51.50031458,Scootercaffe,1
-0.157787,51.492817,Cartier,2
-0.04379578,51.51688605,Stepney City Farm,1
-0.1568985,51.49961998,Petrus,2
-0.14629841,51.4935952,Google UK,12
-0.21723747,51.50275896,K West Hotel & Spa,2
-0.141585,51.516029,Benito's Hat,3
-0.176719,51.615686,McDonalds North Finchley,1
0.00399113,51.5206804,Star Lane DLR Station,1
-0.08377075,51.5136836,Deutsche Bank AG,2
-0.16787744,51.49770145,L'opera of Brompton,1
-0.11767387,51.50599121,Southbank Centre Members Bar,1
-0.127669,51.511803,Orbital Comics,1
-0.11979818,51.52898437,Clink261 Hostel,6
-0.09278297,51.54857013,Canonbury Railway Station (CNN),5
0.24472074,51.45454518,Dartford Tunnel,2
-0.10514259,51.51790317,Farringdon Street,1
0.2044031,51.26727878,Knole Park,2
-0.22462184,51.49203373,othman,1
0.24846911,51.5547502,Crumpled Horn,2
-0.130907,51.51022008,Ticketmaster,2
-0.0786323,51.51423264,city walk-in clinic,1
0.00965915,51.57797811,Lakeside Diner,4
-0.137799,51.51848936,Black&Blue,2
-0.12889624,51.50731344,Albannach,2
-0.143258,51.498195,41 Hotel,1
-0.206357,51.420638,Prince of Wales,2
-0.01757512,51.47822153,Chez Asti,1
-0.14086962,51.5384313,BrewDog Camden,5
-0.152029,51.541326,Wigan North Western,1
-0.12591362,51.59328214,Alexandra Park,3
-0.05330733,51.60669009,frederick knights sports ground,1
-0.47054529,51.35313037,Brooklands Hotel,2
-0.26684242,51.50388391,TfL Bus E3,1
-0.13471737,51.51452773,Hummingbird Bakery,3
0.23727894,51.49061966,circus tavern,1
-0.01943964,51.54681164,Mascot House,2
-0.1258707,51.50743364,Ghost Bus Tours,1
-0.04560935,51.40592294,Churchfields Recreation Ground,1
-0.30776798,51.35850107,Ellingham School,4
-0.12939594,51.51370705,Molly Moggs,1
-0.08698,51.52043939,Bloomberg Space,2
-0.191078,51.547414,West Hampstead Railway Station (WHD),3
-0.129464,51.547135,The Lord Stanley,1
-0.10336607,51.54174549,The Vineyard,1
-0.09329528,51.52339237,Fix Coffee,1
-0.13017253,51.513138,Coach & Horses,2
-0.104316,51.51419,Leon Ludgate Circus,1
-0.14431146,51.53809496,Yumchaa,1
-0.131524,51.5136493,Mooli's,1
-0.11166967,51.54124215,Shah's castle,3
-0.20859027,51.44405003,Southfields Library,1
-0.04008293,51.62819425,ODEON Lee Valley,1
-0.29777884,51.47563303,Rhizotron & Xstrata Treetop Walkway,1
-0.14340162,51.51088591,Hermès,2
-0.14326149,51.50719249,Langan's Brasserie,1
-0.457028,51.470463,Virgin Atlantic Check-In,2
-0.13369997,51.51301966,VitaOrganic,1
-0.126809,51.51041297,St. Martin's Lane Hotel,3
-0.12249671,51.50954533,Adam St. Private Members Club,4
-0.158907,51.513163,Marble Arch,8
-0.254755,51.492753,High Road House,1
-0.14880949,51.51443861,"Waffle Place, The",2
-0.11157453,51.51822697,Chancery Lane Underground Station,2
-0.17492294,51.30246107,The Ramblers Rest,1
-0.153327,51.545941,176 Zabludowicz Collection,1
-0.11312485,51.50281239,Platform 18,1
-0.074226,51.524428,Allpress Espresso,2
-0.46061039,51.46951486,BA Galleries Club Lounge,3
0.00618438,51.49382346,Blackwall Tunnel Northbound,4
0.03533653,51.51783435,Newham Leisure Centre,1
-0.05321503,51.43924273,Forest Hill Railway Station (FOH),3
0.09570243,51.37341431,Orpington,1
-0.41607885,51.66840962,St Lukes Church,1
-0.19442279,51.45738711,Grand Union Wandsworth,2
0.22882462,51.48899927,RSPB Rainham Marshes Nature Reserve,1
-0.07085321,51.520406,Blitz Vintage Department Store,1
-0.02238471,51.51431487,Bartlett Park,2
-0.11210024,51.5899561,Virgin Media TV House,2
-0.18153191,51.4148928,Sainsbury's,27
-0.09652269,51.44854355,Dulwich Cricket Club,1
0.02913348,51.33158467,Biggin Hill Airport,1
-0.099954,51.524387,Hotwire PR,3
-0.11700869,51.50591108,Clore Ballroom,1
-0.14677048,51.54159764,Gilgamesh,1
-0.15492448,51.53772434,ZSL Sports & Social Club,1
-0.14607698,51.51396445,Cafe Bateel,1
-0.10659317,51.52022375,Saffron Digital,3
-0.09213896,51.50812679,RBC,1
-0.536566,51.633469,Newlands Park Campus,1
0.13602406,51.45655668,EDF Energy,1
-0.09088397,51.50556382,Borough Market,23
-0.26041031,51.5528732,IKEA,11
-0.1349314,51.51352123,The Endurance,1
-0.109014,51.550119,Shell Holloway,1
0.17015934,51.5678407,Romford Cemetery,1
-0.09221572,51.50271256,The Roxy Bar and Screen,1
-0.13406754,51.5283703,Platform 8,12
-0.17576711,51.42062794,Moose Cycles,1
-0.24386644,51.50426826,St Elmo Fish Bar,1
-0.02493382,51.46787073,Brockley Market,3
-0.07572949,51.54815649,Dalston Kingsland Railway Station (DLK),1
-0.14027,51.515987,Lyle & Scott HQ,1
-0.122583,51.513456,Kastner & Ovens,1
0.04956722,51.50358708,London City Airport (LCY),29
-0.16467116,51.52265757,Indaba,1
-0.169213,51.519433,Hilton London Metropole Executive Lounge,2
-0.1916262,51.50129815,Sony Music International,2
-0.13868,51.492164,Tachbrook street market,1
-0.09842634,51.5124951,The Centre Page,1
-0.14374339,51.51238664,Browns Bar & Brasserie,3
0.02475759,51.5081292,London 2012 Table Tennis,2
-0.1036464,51.52289079,The Zetter Townhouse,2
-0.08683787,51.52460888,Ozone Coffee Roasters,1
-0.15381511,51.5190062,British Study Centres,1
-0.30027593,51.41225346,Ambar,1
-0.14343381,51.50830841,Nobu,1
-0.159153,51.516567,Cemetery,1
-0.29622598,51.55239191,Wembley Central Square,2
-0.17424392,51.50442518,Herzog & de Meuron and Ai Weiwei Serpentine Summer Pavilion,1
-0.142766,51.4663492,The Bobbin,1
-0.087504,51.529315,Hollywood Cafe,1
-0.00302988,51.54055307,"Platform 14, Stratford Underground Station",2
-0.1091952,51.596213,Crystal Restaurant,1
-0.10261059,51.35985704,Whitgift School,1
-0.16058074,51.37570054,Nightingale Road Bus Stops M & J,1
-0.12673183,51.43785485,The Taj Mahal,2
-0.09037783,51.51171089,The Developing City,1
-0.2913709,51.5438483,"Woodstock Road ,wembley",1
-0.18505868,51.5381618,139-189 Boundary road bus stop,1
-0.191994,51.474974,Randalls,1
-0.02464291,51.44286852,Powerleague Catford,1
-0.06174153,51.53682405,Broadway Market,6
-0.28721482,51.41485985,Carlisle Close,1
-0.47599565,51.54521854,Odeon Uxbridge,1
-0.138974,51.516378,Reynolds,2
-0.0489963,51.65905177,Brick Lane Surgery,1
-0.21468264,51.49036987,Baron's Court Station Newstand,2
0.25444508,51.67247531,Boredom Busters Dog Training & Activity Centre,1
-0.40563583,51.48491064,Queens Head,1
-0.04035115,51.52367775,"Queen Mary, University of London",4
-0.07177591,51.52129457,Brick Lane | ব্রিক লেন,7
-0.1736393,51.542832,Del'Aziz,3
-0.074945,51.458959,Boho,1
-0.169964,51.516522,The Monkey Puzzle,1
-0.00659655,51.54268405,Aspers Casino,1
-0.14598732,51.52607996,St Andrew's Gate,1
0.16912937,51.39331489,Swanley Railway Station (SAY),1
-0.063933,51.418985,Crystal Palace Cafe In Park,1
-0.54675049,51.42906,Coffee Amore,1
-0.102144,51.519594,Fabric London,1
0.103232,51.52503441,Marcantonio Foods,1
-0.164773,51.49595575,Scalini,1
-0.30564417,51.46144451,Richmond Green,1
-0.07774044,51.41970824,Crystal Palace,2
-0.09679518,51.37392474,Bar Ten,1
-0.14158623,51.51786165,Toni & Guy Great Portland Street,1
-0.1345396,51.50987763,Ripley's Believe It or Not! Museum,2
-0.00796728,51.54308455,The Calf,2
-0.14225181,51.50729178,Audi City,3
-0.140784,51.320394,Coulsdon Martial Arts,1
-0.20646746,51.42053671,Wimbledon Bridge House,1
-0.174599,51.494409,Wafflemeister,1
-0.45604209,51.64635762,The Sportsman,1
-0.133939,51.512131,The Loft,1
-0.128005,51.5081289,London Calling,1
-0.01995703,51.504274,Pret A Mager Cabot Square,1
-0.07578654,51.51273226,Hotel Indigo,1
-0.112566,51.569523,Pizzeria Pappagone,2
-0.126034,51.508402,Tapjoy,1
-0.15591,51.521197,Blandford Hotel,1
-0.53425237,51.55002737,Shed 26 Pinewood Studio,1
-0.07407188,51.56125134,Stoke Newington Bookshop,1
0.0768,51.3676,Newstead Wood School for Girls,1
-0.11486072,51.50748574,Olivier Theatre,1
-0.13569036,51.50893646,5th View Bar & Food,1
0.12534521,51.41514276,bp connect,2
-0.14088528,51.50167331,Buckingham Palace Gate,3
-0.13254941,51.52691853,The Euston Tap,5
-0.359699,51.503213,Hanwell Lock,1
-0.08157917,51.5438474,Avant garde,1
-0.10063815,51.53725443,The Old Queens Head,3
-0.40079009,51.58325116,Tudor Lodge Hotel London,1
-0.36181927,51.37328062,Sandown Park Racecourse,2
-0.15234182,51.50697105,The Promenade At The Dorchester,2
-0.11008,51.525357,Caravan,1
-0.074666,51.5106979,Tower Gateway DLR Station,3
-0.1349564,51.53770787,Bar Break Out,1
-0.22786426,51.28716964,The Dukes Head,1
-0.12561321,51.50006078,House of Commons,2
-0.48608576,51.47110319,Flight Connections - T5,1
-0.01785774,51.54739223,British Airways Park Live,34
-0.22789121,51.51337646,BBC Media Centre,1
-0.21122115,51.52624869,jivamukti yoga,5
-0.07542372,51.51966566,Old Spitalfields Market,4
-0.13459,51.514761,Angell Sound,1
-0.084998,51.541516,De Beauvoir Deli,2
-0.12937387,51.51393818,Bar Salsa,2
-0.12316076,51.47815834,our roof terrace,1
-0.10655018,51.52399053,Carve Consulting,1
-0.12967535,51.51341954,La Bodega Negra,1
-0.01381874,51.46545121,Lewisham Railway Station (LEW),4
-0.31551361,51.55089851,Sudbury Town Underground Station,1
-0.16801357,51.51950544,London Police Jail,1
-0.306903,51.416863,Kingston Dragon Boat Race,1
-0.07007223,51.31879685,Riddlesdown Common,1
-0.24453163,51.34168473,NESCOT,4
-0.16312138,51.50239874,G2 EMEA,1
-0.13162784,51.51690783,Han Kang,1
-0.12798681,51.50821129,West End Live,1
-0.0748683,51.51063902,The Minories,2
0.02937278,51.55180939,Dragan's Den,1
-0.17847985,51.55592874,Melrose And Morgan,1
-0.1390028,51.46112986,Clapham Common South Side,2
-0.44719934,51.460065,The Whisky Bar,2
-0.13855718,51.51629889,Intela,1
-0.19405782,51.65046999,High Barnet Underground Station,1
-0.153713,51.366851,Dukes Head,1
-0.07995129,51.52783632,Hoxton Salon,1
-0.16625404,51.3685788,Carshalton Railway Station (CSH),1
-0.07825613,51.51887789,B@1,4
-0.08065718,51.52688767,Café El Paso,1
-0.12415409,51.5099177,Chequers,1
-0.206502,51.51753257,Garden & Grill Cafe,1
-0.15753103,51.51369793,Thistle Marble Arch Hotel,1
-0.13545156,51.51007128,Nespresso Boutique,2
-0.02364635,51.50588437,Credit Suisse,1
-0.141763,51.537988,Mercieca,1
-0.30231493,51.44699959,Petersham Nurseries Cafe,1
-0.19530773,51.5156599,Otto,1
-0.12432575,51.51182739,Africa Centre,1
-0.07874966,51.50481587,City Hall (Greater London Authority),1
0.02439326,51.51736377,"Newham Way, A13",1
-0.02686501,51.50943692,Westferry DLR station,1
-0.147809,51.518235,ICP,1
-0.19041538,51.50163696,Northcliffe House,1
-0.0631851,51.514576,Lahore Kebab House,3
-0.13986225,51.52270461,Fitzroy Square,1
-0.11059334,51.53571526,Islington,3
-0.00223964,51.48003131,London 2012 Equestrian Venue,1
-0.126235,51.531431,Javalin,3
-0.03686428,51.51117303,Limehouse Basin,1
-0.12518676,51.52256186,Hotel Russell,1
-0.14004744,51.51640525,Carluccio's,9
-0.27845023,51.60929774,Security Systems Technology,1
-0.01958735,51.50405513,Slug And Lettuce Canary Wharf,1
-0.01834504,51.50465596,Wahaca Terrace Bar,1
-0.105527,51.53561817,Business Design Centre,11
-0.15371203,51.52748923,Regent's Park,14
-0.10513005,51.43995242,Tulse Hill Railway Station (TUH),2
-0.07615328,51.51612726,Flying Burrito,1
-0.08642967,51.5204924,Bloomberg,1
-0.15146707,51.51418404,Adidas,2
-0.03428869,51.51022646,Limehouse,1
-0.1081972,51.51929318,Hatton Garden,2
0.278719,51.612717,Marygreen Manor,3
-0.17849704,51.51378367,Paddington Rd,1
0.0257653,51.50964726,Custom House for ExCeL DLR Station,1
-0.1963377,51.37486118,Sutton Common Railway Station (SUC),1
-0.011394,51.4653902,Maggie's Kitchen,1
-0.14182448,51.50714983,The Ritz,2
-0.066188,51.412745,Anerley Arms,1
-0.055852,51.54589492,The Old Ship,2
-0.13593661,51.5267289,MIC Hotel,1
-0.0927896,51.501543,Overseas Visas Record Records Office,1
-0.198636,51.4808,Rodizio Rico,3
-0.12670219,51.49470069,Burberry Global Headquarters,1
-0.164693,51.58711644,East Finchley Underground Station,1
-0.48932076,51.47087823,Crew Report Centre,2
-0.10852856,51.5498706,Horatia,1
-0.12617111,51.53162744,Eurostar Business Premier Lounge,4
0.03964305,51.27112511,Clacket Lane Services,3
-0.12851804,51.56218011,Whittington Park,1
-0.27343837,51.54549509,Royal Chicken,1
-0.07295609,51.56522641,Stoke Newington Railway Station (SKW),1
-0.150745,51.509773,Scott's,3
-0.30494439,51.40727939,Kingston College,3
-0.00694829,51.48151899,National Maritime Museum Bus Stop,1
-0.14732062,51.4935868,Victoria Coach Station. Eurolines Checkin,1
-0.19483566,51.4867813,Pizz@home,1
-0.16937931,51.50475625,Serpentine Swimming Club,1
-0.47886953,51.54554,The Three Tuns,1
-0.04068375,51.40854899,Clock House Railway Station (CLK),2
0.181472,51.277141,Raj Bari,1
-0.00793397,51.54222821,Wahaca,13
-0.08827185,51.58334367,35 - Abbotsford Avenue,3
-0.16109666,51.51494933,TfL Bus 23,1
-0.22360915,51.49211313,The Walt Disney Co. Ltd,2
-0.19180819,51.45553075,Garratt Lane Old Burial Ground,1
-0.1351723,51.51822306,Newman Arms,1
-0.11023879,51.52532654,Spinach & Agushi,1
-0.090567,51.528498,Jamie Oliver's Fifteen,1
0.00416279,51.5024651,Spur Steak and Grill,1
-0.1393978,51.51084137,Strawberry Moons,3
-0.19309,51.52846,Greene & co,1
-0.18704459,51.50880946,Kensington Palace Gardens,6
-0.13109821,51.51430074,Miabella,1
-0.15088772,51.5401276,The Engineer,1
-0.01991004,51.58289161,Walthamstow Central Railway Station (WHC),1
-0.22147031,51.50714853,Westfield London Fashion Show,1
-0.10604785,51.53235644,Kaplan Angel Square,2
-0.14295305,51.53886647,Jazz Cafe,2
-0.24618879,51.61498854,Half Full,1
-0.1552641,51.590595,The Clissold Arms,1
-0.29474258,51.55308668,Boots Wembley,1
-0.126063,51.508962,Charing Cross Random Toilet,1
-0.167031,51.493037,The Rabbit Agency,2
-0.16527,51.430596,Mirch Masala,1
0.01111507,51.50278567,Emirates Air Line,1
-0.29998804,51.5093689,Webster Gardens,1
-0.13860437,51.45666022,Brighton Beach,1
-0.120565,51.513212,Fortune Theatre,1
-0.07210215,51.5210047,Cafe 1001,3
-0.14100557,51.51368865,222 Regent Street,2
-0.13146284,51.52511734,Bloomsbury Fitness,3
-0.14995588,51.50536241,Whisky Mist,1
-0.18140316,51.54810978,Virgin Active Swiss Cottage,2
-0.147692,51.45210108,Marks & Spencer Simply Food,4
-0.13106346,51.51441805,foursquare London,1
-0.51311813,51.40379781,X:\No Way Out,1
-0.12603731,51.51597955,Shaftesbury Theatre,1
-0.11465152,51.52359451,ITV Network Centre,1
-0.48450351,51.547109,Fassnidge Park,1
-0.30082078,51.4112971,Rush Salon,1
-0.10106564,51.5232572,The Slaughtered Lamb,1
-0.0498,51.503647,EurAsia Strategies,1
0.055299,51.647419,The Last Post (Wetherspoon),1
-0.09674379,51.57124673,Finsbury Park Nurseries,1
0.06270062,51.54321679,East Ham Depot and Carriage Sidings,2
-0.19084185,51.35952207,Sutton Railway Station (SUO),1
-0.311355,51.392008,The Lamb,3
0.01806736,51.50792111,Emirates Royal Docks (North Terminal),3
-0.13529062,51.50719323,St James Square,1
0.01829543,51.5077611,Olympics 2012 Cable Car,3
-0.13536498,51.57277601,La BatTaverna,1
-0.09805851,51.50443671,Peerius Ltd.,1
-0.13348818,51.51069227,Cineworld Shaftesbury Avenue,4
-0.13261269,51.51025428,TGI Friday's,8
-0.40957486,51.44794335,Feltham Railway Station (FEL),4
-0.12543216,51.50718331,Common Wealth Club,2
-0.30045033,51.41162732,Kingston Upon Thames,6
0.03304922,51.46038996,Kidbrooke Interchange,6
0.01782484,51.43362525,Grove Park Shed,3
-0.09085178,51.45103841,Herne Hill Velodrome,1
-0.07482796,51.39747333,Cafe Basmaccino,1
-0.09961873,51.50753917,Edvard Munch @Tate Modern,3
-0.13166428,51.51363018,Koya,3
0.00198654,51.54190366,Lloyds TSB,2
-0.4863174,51.47182699,Customs,2
-0.19212844,51.50023041,High Street Kensington Station Bus Stop,2
-0.08465607,51.52631971,The Horns,1
-0.08694112,51.50556382,London Bridge Underground Station,4
-0.01871136,51.5042095,Citigroup Centre,1
-0.13619184,51.51338981,Hearst Magazines UK,1
0.09922882,51.35221725,Mawlabaux's,1
-0.11648915,51.50704277,Southbank Skate Park,3
-0.11560321,51.50624498,Hayward Gallery,2
-0.12496897,51.50097779,Westminster Station,7
-0.103133,51.633709,Dental Practice On The Green,1
-0.204989,51.420499,O2,3
-0.05128018,51.51179912,Shadwell Station,1
-0.17498947,51.54251251,Odeon Swiss Cottage,1
0.194664,51.26593618,Sevenoaks School,1
-0.139475,51.513906,Orange,1
-0.133242,51.527893,Camden Food Co,1
-0.153228,51.514115,Daylesford at Selfridge's Rooftop,1
-0.13179302,51.51297585,Old Compton Street,2
-0.129468,51.507378,Vista At The Trafalgar,1
-0.08273882,51.61728636,Gladys Aylward School,1
-0.1416374,51.535081,Sheephaven Bay,1
-0.307782,51.406951,The Kingston Mill,1
-0.140986,51.497135,La Tasca,1
-0.47806621,51.54645181,Uxbridge Underground Station,5
0.05753875,51.43102274,Nisa Local,1
-0.103817,51.515656,Mynewsdesk UK,2
-0.48846245,51.47266928,BA Galleries Lounge North,4
-0.21376833,51.46014847,Virgin Active Health Clubs,6
-0.172058,51.470478,Costa's Barbers,1
-0.221708,51.508549,Westfield Carpark,1
-0.20871525,51.53283002,Bakerloo Line,1
-0.09526402,51.50545196,Novotel,8
-0.12684703,51.5095905,Notes Music & Coffee,1
-0.19358039,51.49179162,Earls Court Underground Station,3
-0.21590836,51.42444646,The Lawn Bakery,1
-0.29899937,51.53199825,River Island HQ,3
0.03774331,51.53912976,Dorset road,2
-0.08494846,51.51476933,White & Case LLP,1
-0.21794122,51.44481277,Vol.19 No.6,1
-0.2399826,51.59857399,RAF Museum London,1
-0.143753,51.509082,Hong Kong Economic And Trade Office,2
-0.0748984,51.568747,Hillside Nursery,1
-0.1287153,51.52587894,BMA House,1
-0.17022591,51.48860751,Casa Da Vovó,3
-0.13487643,51.4997573,Ministry of Justice,2
-0.334397,51.554301,TheRabidWolverine95'nesting/training Grounds,1
-0.07474418,51.51984787,MWNails,2
-0.135763,51.462679,Infernos,1
-0.30388853,51.4102077,Marks and Spencer,2
-0.19041538,51.53023918,Paddington Recreation Ground,4
-0.10136,51.49483,University Of The Arts,1
0.009689,51.528908,Kings Cross Steelers RFC,1
-0.07783057,51.52587817,The Shoreditch,2
-0.10863763,51.53368873,Modern Touch,1
0.113318,51.412959,PFDriving,1
-0.0715715,51.52443425,Brick Lane Beigel Bake,2
0.032407,51.543424,Amitas,1
-0.06610564,51.53040334,Ion Square Gardens,3
0.05825617,51.45076385,Rising Sun,1
-0.27500961,51.52783072,Hindu Forum Britain,2
0.00506401,51.50128967,Ravensbourne College,1
-0.24929523,51.61298014,Mill Hill Broadway Railway Station (MIL),1
-0.370145,51.45662944,The Cummings Household,1
-0.15747786,51.39272577,Mitcham Junction Railway Station (MIJ),1
-0.13376713,51.51165379,Gelupo,1
-0.183327,51.41307,Katavento,1
-0.20472765,51.42146321,Centre Court Shopping Centre,1
0.028478,51.681476,Marriott Hotel Waltham Abbey,1
-0.06152745,51.50432283,John Orwell Sports Centre,8
-0.05284404,51.53076705,Rogers Estate,8
-0.29525256,51.60466081,Stanmore Delivery Office,2
-0.11781184,51.54850042,Fighting Fit Fencing,1
-0.09207386,51.52119036,Lloyds Banking Group,1
-0.00589311,51.64654909,Teddy Sherringham's Place,1
-0.22579908,51.49320109,Lyric Hammersmith,1
0.21625042,51.56293212,JJ Moon's (Wetherspoon),1
-0.18796921,51.44237249,Earlsfield Railway Station (EAD),1
-0.13376713,51.51213454,The Yard,5
-0.44559112,51.64773061,The Fox,3
-0.01843076,51.50455325,Mexican Street Kitchen,2
-0.18557131,51.61785334,Woodside Park Underground Station,2
-0.102034,51.49481,LCC SU Bar (Darkroom),1
-0.10437012,51.50964392,Blackfriars Bridge,7
-0.02935064,51.53077526,Mccullum Road,1
-0.23861016,51.47287407,Barnes Green,1
-0.39928334,51.51511163,Hillingdon Cycle Track Minet Park,1
-0.14162064,51.51135332,The Burlington Arms,1
-0.48175375,51.47267454,Gate B32,1
-0.12832761,51.50872243,National Gallery,9
-0.11056983,51.51810447,De Vere Venues,1
-0.206106,51.489339,Best Mangal,1
-0.091957,51.375989,Creative Benefit Solutions,2
-0.08340597,51.46033773,1 Buxted Road,1
-0.085102,51.513949,Merchant Taylor's Hall,1
-0.18319998,51.49080202,The Drayton Arms,1
-0.02081394,51.59128255,Lloyd Park,1
-0.17811713,51.4019226,The Garden,2
-0.13157884,51.5204666,College of Law,2
-0.27921912,51.56332407,Wembley Park London Overground Station,1
-0.21234512,51.38512011,TfL Bus 93,2
-0.17939687,51.51941865,The Union Bar,1
-0.12336016,51.51950544,Central London Shodokan Aikido Club,1
-0.29045105,51.49720215,Gunnersbury Park,2
-0.1006794,51.39885758,Thornton Heath Railway Station (TTH),1
-0.139081,51.508088,Piccadilly Arcade,1
-0.10236639,51.50731763,Sampson House (IBM),1
0.05281359,51.45564888,On The 10:47 Eltham To Sludge Green Via Bexleyheath,2
0.00878743,51.50209207,North Greenwich Pier,1
-0.12960434,51.51322289,Palace Theatre,2
-0.01315355,51.53859479,ArcelorMittal Orbit,21
-0.13308223,51.515047,The Toucan,1
-0.15024662,51.50350694,InterContinental,1
-0.17134145,51.51366375,The Victoria,3
-0.143075,51.59064,Muswell Hill,4
-0.03976631,51.52545052,Queen Mary Students' Union (QMSU),1
-0.480039,51.371687,Cochlear Europe Ltd,1
-0.13730944,51.52408334,Tesco Express,20
-0.09926686,51.65095406,Enfield Golf Club,3
-0.12363374,51.57898309,Spiazzo,1
-0.12290955,51.47216138,Stockwell Underground Station,1
0.1824511,51.57408246,Romford Cafe,4
-0.02249395,51.50717012,levante,1
-0.011424,51.478368,Alpha Meridian College,2
-0.14333829,51.52135507,Villandry,1
-0.10346793,51.52168274,Euro RSCG People,1
-0.08548737,51.52270313,Google Campus,16
-0.05612359,51.5340696,Bistrotheque,1
0.190415,51.464736,Slade Green Loop,2
-0.13116002,51.51052534,M&M's World,14
0.01046236,51.40774551,bromley magistrates court,1
-0.1255703,51.42201182,Streatham Common,2
-0.17698288,51.49880514,Imperial College,3
-0.43681383,51.51009131,Canon Europe Ltd.,1
-0.45243734,51.48663622,DoubleTree by Hilton Hotel,10
-0.45928,51.4658,Airplane,1
-0.07402897,51.56013079,Stoke Newington High Street,2
-0.073995,51.503654,Teapod,1
-0.25279284,51.49274018,Budsara Thai Bistro,1
-0.151541,51.518475,Paul,10
-0.13402462,51.50999783,Piccadilly Circus Underground Station,4
-0.151433,51.442845,Balham Railway Station (BAL),1
-0.13536498,51.57277601,✨Princess Palace✨,6
-0.058869,51.525881,Paul's Pad,1
-0.01785263,51.50473294,Canada Square Park,1
-0.27738218,51.60826406,Edgware,1
-0.45790672,51.47170693,London Heathrow Airport (LHR),205
0.09771824,51.59474846,Fairlop Waters Country Park,1
-0.24000674,51.49024683,The Old Ship W6,1
-0.12718201,51.50751495,Plataform 9 3/4,1
-0.108883,51.521474,Source (Recruitment),1
0.03952926,51.50313667,North Woolwich Roundabout,2
-0.15295029,51.51407182,Arabian Oud,1
-0.14016923,51.50859289,Burlington Arcade,6
-0.12859891,51.489344,Morpeth Arms,1
-0.18750648,51.51034857,Hilton,4
0.0539184,51.44997631,Raymonds pie & mash,1
-0.01648486,51.46876966,Elverson Road DLR Station,1
-0.16020298,51.50225807,Dinner by Heston,2
-0.14350086,51.51127345,Miu Miu,1
-0.08112502,51.51984395,Piccolino,2
-0.08764463,51.51833485,VCE London Office,1
-0.164323,51.55029338,La forchetta,1
-0.207208,51.506803,Maison Blanc,1
-0.42176248,51.57054986,The Barn Hotel,2
-0.02580139,51.49852356,Barkantine Clinic,1
-0.42322095,51.53433452,Knights Gardens,2
-0.51154017,51.40256573,Saw - The Ride,1
-0.48642324,51.47079737,British Airways Concorde Lounge,1
-0.207389,51.515023,XL Recordings,1
0.004548,51.502371,Thai Silk,1
-0.08750439,51.52399149,Bus Stop N - Old Street Station,1
-0.48060227,51.54578463,St Margarets Church,1
-0.40691813,51.49553854,Western International Market,1
-0.10904789,51.51919167,The Argyle,2
-0.015731,51.53955,Paralympics - Olympic Stadium London 2012,2
-0.4232407,51.4721139,British Airways TBC,1
-0.15084743,51.51473853,Chanel,3
-0.13072847,51.51367977,Jersey Boys,1
-0.01866454,51.54577949,Britannia row - Picnic Benches,2
-0.37660857,51.67593691,Munden,1
-0.15653265,51.49956456,The Pantechnicon,1
-0.10845,51.526234,Santore,1
-0.15553008,51.51775156,Royal China,2
-0.13813729,51.51367645,Marshall Street Leisure Centre,3
-0.198001,51.548156,Home O' Fun,1
-0.18779755,51.64659891,Odeon Barnet,1
0.258369,51.359516,Brands Hatch Pits,1
-0.11916108,51.55745109,Big Red,2
-0.08712888,51.50522992,London Bridge Bus Station,1
-0.15793283,51.52253303,Rare Steakhouse&restaurant,1
-0.13713598,51.51742248,Long Bar at Sanderson,1
-0.13011107,51.51306468,Viet Pho,1
-0.05216764,51.495854,Seven Islands Leisure Centre,3
-0.11350108,51.50341187,Sports Bar & Grill Waterloo,1
-0.43849345,51.4944689,William Byrd Swimming pool,1
-0.1381,51.46150053,Metro Garden Restaurant & Bar,1
-0.12947559,51.51029163,Yates's,1
0.21612257,51.44494909,Ossie's Cafe,1
-0.34450805,51.44646344,Gregs office,1
-0.09091,51.51067,London 2012 Paralympics Powerlifting ExCel Centre,1
-0.14000312,51.52101038,University Of Westminster,1
-0.12690067,51.51236156,SUDA Siamese Rice Bar,1
-0.140819,51.53688,Camden Job Center,1
-0.35528358,51.64832592,Shake'n'shake,1
-0.008454,51.543806,Jo Malone,1
-0.20213122,51.49396717,Warren House,2
-0.01720905,51.50770075,Poplar DLR Station,3
-0.15597582,51.51427116,Premier Mostyn Hotel (Best Western),9
-0.03546953,51.52491268,Green Bridge,1
-0.224362,51.505142,Defectors Weld,1
-0.14960289,51.36007142,The Whispering Moon (Wetherspoon),2
-0.3266084,51.48687244,BSkyB Gym,1
-0.06631624,51.50521169,Heathrow Airport London,1
-0.141119,51.50168,Changing of the Guard,2
-0.39053676,51.55943714,Hillingdon L&D Centre,1
-0.12486488,51.44507575,The Crown & Sceptre (Wetherspoon),1
-0.16844273,51.42787213,J.J. Moon's (Wetherspoon),2
-0.074717,51.513809,Still & Star,1
-0.19914865,51.496922,The Scarsdale Tavern,1
-0.151727,51.543495,Joe's,3
-0.14649018,51.44661801,Cambray Rd.,1
-0.14226437,51.51312274,Goodman Steak House Restaurant,2
-0.08026242,51.51147351,St Olave Parish Hall,1
-0.17585024,51.63283293,Haven Bistro And Bar,1
-0.05537569,51.5448076,Hackney Picturehouse,6
-0.101588,51.520396,7thingsmedia,2
-0.07398605,51.56218511,The Three Crowns,1
-0.12957215,51.46483963,Clapham North Underground Station,1
-0.124708,51.526702,Chilli Cool,1
-0.10271,51.519427,Top Floor Smiths of Smithfield,2
-0.07249475,51.52106426,Rough Trade East,3
-0.16839981,51.56351904,Hampstead Heath,3
-0.089899,51.5050568,De Gustibus,1
-0.11800813,51.3747217,Purley Way Centre,1
0.02400272,51.54932756,Forest Gate Railway Station (FOG),2
-0.09417772,51.56809412,Manor House,1
-0.14115393,51.50745367,The Wolseley,2
-0.20383095,51.51430062,The Hummingbird Bakery,3
-0.1081882,51.59418322,Wood Green Shopping City,3
-0.13710589,51.5175998,Sanderson Hotel,2
-0.13142915,51.37989132,Superdrug Head Office,1
-0.10537326,51.2916152,The Arc,1
-0.12179375,51.50080881,Westminster Bridge,6
-0.082588,51.517938,The Serra Sculpture Outside UBS That Smells Of Wee,1
-0.00967736,51.48167283,Greenwich,8
-0.12960434,51.51026492,Global Radio,1
-0.16705864,51.5201219,Edgware Road Platform 2,1
-0.13938121,51.51094952,The Living Room,1
-0.141824,51.496869,Costa Coffee (Cardinal Place),1
-0.13177494,51.51270349,Nam,1
-0.16377106,51.49972924,Richoux Tea Room,1
-0.21429184,51.57859906,North Circular Road,2
-0.15622476,51.51914127,Canteen,3
-0.46872139,51.63781035,Za Za,1
0.038607,51.273533,Hot Food Co,1
-0.32322949,51.47777858,Home sweet home,3
-0.15307367,51.46604274,Elephant on the Hill,2
-0.1516141,51.51890099,Providores & Tapa Room,2
-0.19250751,51.5484367,West Hampstead Thameslink Railway Station (WHP),2
-0.1549775,51.50962128,"Grosvenor House, A JW Marriott Hotel",1
-0.45769215,51.36173283,Weybridge Railway Station (WYB),7
0.0529472,51.45087992,Eltham Bakery,2
-0.1184998,51.5103097,Me London,1
-0.17891464,51.46926099,Hotel Verta,1
-0.10256767,51.51400409,Ye Olde London,2
-0.15285289,51.35883422,Wallington Town Centre,1
-0.1322329,51.5112565,C&R Café Restaurant | 馬夾一哥,1
0.06669044,51.65530589,Plume Of Feathers,1
-0.11715998,51.4630858,Ferndale Community Sports Centre,1
-0.150572,51.516655,Cocoro,1
0.00585105,51.44670914,Jimbo's,1
-0.1013742,51.49473545,LCC,1
-0.13361957,51.51423112,Soho Hotel Screening Rooms,1
-0.319521,51.511173,Bagel & Shake,1
-0.128694,51.513575,Angels Fancy Dress,1
-0.28930094,51.56563794,English Base Preston Manor,2
-0.04535079,51.4059289,Beckenham Recycling Centre,1
-0.007075,51.542544,Tossed,3
0.00824096,51.51401596,Canning Town Underground Station,3
-0.11733097,51.52590713,Eastman Dental Hospital,1
-0.14732301,51.50908468,Coach & Horses - Shepherd Neame,2
-0.151247,51.514085,Ponti's Italian Kitchen,1
-0.0604,51.6505,Cineworld Enfield,3
-0.1824894,51.4944153,Burger King,14
-0.14149189,51.5144314,Apple Store,40
-0.36682909,51.36844459,Cote,1
-0.108919,51.516217,Grapolo Restaurant & Bar,1
-0.18734,51.513241,Halal Restaurant,1
-0.11320981,51.46986538,Daniel Motors,1
-0.46364,51.469668,VS601 to Johannesburg JNB,1
-0.30699492,51.45995002,Quality Fish Restuarant,1
-0.19146905,51.49704872,Kensington Green,1
-0.0820958,51.50628064,HMS Belfast,1
-0.11886726,51.5223627,The Perseverance,2
-0.288477,51.485345,The Rose & Crown,1
-0.10035753,51.37583896,Whitgift Centre,2
-0.08497238,51.51328298,Counting House,2
-0.1368671,51.514311,Lucky Voice,1
-0.13789553,51.50781006,The Cavendish,1
-0.40857887,51.48328036,The Parkway (Stop CK),4
-0.0139904,51.54668199,The Acer Journey,2
-0.13374054,51.51312733,Banana Tree,3
-0.12338161,51.53077313,London King's Cross Railway Station (KGX),57
-0.06688356,51.51045189,Wilton's Music Hall,1
-0.10524988,51.53373645,The York,2
-0.20655155,51.42016526,Square Enix,1
-0.08039178,51.52644639,Bar Music Hall,1
-0.06336602,51.52633874,Muscleworks,3
-0.07326722,51.65119891,MC Square Marketing Solutions,2
-0.13573135,51.49856863,Sohot Bikram Yoga Victoria,3
-0.073036,51.328199,Atwood School,1
-0.08995056,51.50605132,Southwark Cathedral,1
-0.13508775,51.51029739,Jewel Piccadilly,1
0.02758543,51.45333954,Sutcliffe Park Athletics Track,1
-0.1023531,51.4533116,Herne Hill Railway Station (HNH),1
-0.12158591,51.51746749,Princess Louise,1
0.03942277,51.27063292,Clacket Lane,2
-0.15713095,51.49221952,Sloane Square,3
-0.19395699,51.5085621,Mall Tavern,1
-0.07843679,51.51699632,Cinnamon Kitchen,1
-0.172069,51.486196,Made in Italy,1
-0.08709245,51.52896247,Hi Mum! Said Dad.,1
-0.48069477,51.46956832,Gate B43,1
-0.08219709,51.50200627,Hide Bar,1
-0.02572775,51.46066528,Hilly Fields,1
-0.28716351,51.51471619,Acton Main Line Railway Station (AML),1
-0.02718,51.509252,Spice Merchants,1
-0.13691255,51.51785635,PRS for Music,1
-0.12464762,51.55311336,Holloway Prison,1
-0.083654,51.516909,IOD City Hub,1
-0.3519585,51.65704675,Bushey Cemetery,1
-0.008497,51.543977,Modelzone,1
-0.39508079,51.5178434,The Botwell Inn (Wetherspoon),2
-0.09814739,51.5761094,Arena Shopping Park,1
-0.1832669,51.59665643,MCCC Academy,1
-0.14500202,51.49484812,Platform 13,7
-0.11254549,51.56946789,Stroud Green Road,1
-0.50679734,51.65776303,Chorleywood Common,1
-0.157244,51.537342,Primrose Hill Childrens Playground,1
-0.192132,51.51417768,Umi Hotel London,7
-0.18652678,51.53925178,"Belsize Road , Kilburn",1
-0.01835978,51.54465485,Panasonic,1
-0.081878,51.500849,EATalia,2
-0.39331913,51.65530589,Harlequin Shopping Centre,2
-0.11655807,51.51611391,Lincoln's Inn Fields,4
0.27253832,51.4388634,Cafe nero,1
-0.18489839,51.50180211,Baglioni Hotel,2
-0.13533448,51.523218,UCH Macmillan Cancer Centre,1
-0.44983864,51.45867322,Gate 5,1
-0.22552013,51.49306081,The William Morris (Wetherspoon),1
-0.08439302,51.52216909,Blueberry Bar and Kitchen,1
-0.09630603,51.51362588,Barbecoa,4
-0.05128384,51.52084062,Genesis Cinema,1
-0.09191294,51.50743405,Train from Cannon St to Orpington,2
-0.072653,51.521085,Big Chill Bar,1
-0.09763241,51.51663467,Little Britain,1
-0.41197651,51.60332814,Northwood Hills Dental Practice,1
-0.37105143,51.46785068,Halfords,3
-0.0573,51.532687,Fitness4less Gym,4
-0.00966101,51.48344283,Nando's Greenwich,1
-0.31369371,51.51173099,Ealing Fire Station,1
0.038893,51.380915,Oakley House,1
-0.150405,51.515059,St Christopher's Place,1
-0.1082759,51.56846357,The Faltering Fullback,2
-0.10930761,51.50396515,Charing Cross (CHX) to Hastings (HGS) Train,2
0.05758456,51.48132067,London 2012 Royal Artillery Barracks,11
-0.0829786,51.50493048,More London Riverside,2
-0.09278297,51.37617381,Platform 3,18
0.25915479,51.36003859,Brands Hatch,10
-0.2201128,51.50643196,The Bull,2
-0.1661253,51.4590342,The Holy Drinker,1
-0.131322,51.511097,Little Korea,1
-0.123831,51.530376,Oxford Circus,1
-0.1587975,51.49046227,Saatchi Gallery,3
-0.13526917,51.50238496,St James's Park,12
-0.30504227,51.46090592,Gelateria Danieli,1
-0.15138388,51.51774294,Diwan Restaurant,1
-0.177758,51.513226,Royal Court Apartments,2
-0.132039,51.51128387,O'Neill's,8
-0.12632404,51.50091,Westminster Abbey Organ Loft,1
0.10183811,51.46480955,Welling Railway Station (WLI),1
-0.14830883,51.51027707,Lanvin,1
-0.09550139,51.57108334,Manor Café,1
-0.12804866,51.50798789,Trafalgar Square,38
-0.13496876,51.56542649,Archway Underground Station,5
-0.16292752,51.5219405,The Winter Garden,1
-0.46245315,51.473636,Gate 30,1
-0.0761505,51.51531148,Sam's,1
-0.15902193,51.5022876,Kuwaiti Embassy,1
-0.114411,51.368276,Duppas Hill Recreation Ground,1
-0.13762683,51.50982588,Cuckoo Club,2
-0.39312836,51.65367648,Pepe Rosso,1
0.27058125,51.43905547,UNIQLO - Bluewater,1
0.17093319,51.60430348,The Batcave,2
-0.017215,51.503298,McGraw-Hill,4
-0.05442739,51.42726338,Sydenham Railway Station (SYD),1
-0.08299828,51.52535324,Hoxton Hotel Grill,3
-0.07898569,51.51164043,London Fenchurch Street Railway Station (FST),1
-0.130823,51.51332426,BKB,1
-0.14571905,51.54095705,Camden Market,11
-0.03828049,51.50852878,Thames Clipper,1
0.07085683,51.49587034,Royal Arsenal Pier,1
-0.2146353,51.47546306,Buenos Aires Argentinian Steakhouse,1
-0.32093167,51.45585878,Brocca Antica,1
0.1783681,51.45000826,Sainsbury's Garage,1
-0.13360474,51.4965187,Strutton Ground,1
-0.11644542,51.338067,The Jolly Farmers,1
-0.10449886,51.53533816,Complete Physio,1
-0.16112757,51.49076256,Lloyds  Bank,1
0.20603657,51.58194993,Gidea Park Railway Station (GDP),1
-0.51286123,51.40321892,Colossus,2
-0.13689534,51.53817209,Uswitch,1
0.01677959,51.53915926,West Ham Park,1
-0.04660499,51.55116438,Caffe Ritazza,1
-0.18166065,51.47317717,Waterside Tower,1
-0.4393,51.5366,HAYES PARK,1
-0.12861729,51.51576673,The Intrepid Fox,2
-0.073433,51.562427,Jolly Butchers,1
-0.133464,51.519893,2020 Optical Store,1
-0.16006269,51.49107711,Zara,7
-0.38088312,51.58960272,Pinner,1
-0.09285271,51.5073101,The Anchor,4
-0.18206267,51.49347744,Zack's Deli,2
-0.15183449,51.54318572,Roundhouse,37
-0.217313,51.425261,Bayee Village,1
-0.08784067,51.44667647,Tigger's Den,1
-0.46800483,51.48172862,Arora International,1
-0.132948,51.512899,Top Left Design,3
-0.01817992,51.54150172,London 2012 Megastore,20
-0.11671212,51.50687341,South Bank Queen Walk,1
-0.36060043,51.64407208,Bushey Rose Garden,1
-0.10411263,51.52096746,St Johns Garden,1
-0.04295312,51.51291835,Lavender House,1
-0.36628514,51.46908687,Pernod Ricard,5
0.07784843,51.53790078,Barking Dental Practice,1
-0.15973482,51.50196738,"The Spa at Mandarin Oriental Hyde Park, London",1
-0.103273,51.53124869,"Fitness First, Islington (Angel)",2
-0.07179,51.51971,Brick Lane Clipper,1
-0.104263,51.534291,Frederick's Bar & Restaurant,1
-0.1288013,51.43247421,Odeon Streatham,1
0.22159518,51.41412432,Hawley Clay Shooting Grounds,1
-0.36787033,51.54888371,Northolt Leisure Centre,1
-0.24142173,51.45048427,"Sports Pavilion, Roehampton playing fields",1
-0.12328086,51.57760077,The Blue Legume,1
-0.44213976,51.49279613,QPR Training Ground,1
-0.08596426,51.4777066,Bernard Myers House,1
-0.20662665,51.44539839,Southfields Underground Station,2
-0.072826,51.551069,Christibor,4
-0.13850227,51.51591936,Kiss 100,1
-0.13988831,51.51349492,Carnaby Burger Co,1
0.00840604,51.5137971,Canning Town DLR Station,6
-0.05605851,51.54726724,Hackney,1
-0.12621403,51.52142809,Russell Square,10
-0.11647732,51.52493108,Calthorpe Arms,1
-0.16233724,51.50057837,Tommy Hilfiger,1
-0.00145912,51.47793173,Greenwich Meridian,4
-0.0246526,51.42285156,Braeside,3
-0.02613302,51.41112049,Beckenham Junction Railway Station (BKJ),1
-0.01008,51.476015,Buenos Aires Cafe,1
-0.20450734,51.54061895,Paddington Old Cemetery,1
-0.13936788,51.51264787,Fornata,1
-0.14382628,51.49424293,DoubleTree by Hilton London - Victoria,1
-0.1002387,51.50511932,Europoint Building,1
-0.007789,51.542859,Magnum London,1
-0.11719108,51.5110662,Somerset House,1
-0.1227732,51.50926893,The Adelphi,1
-0.17247677,51.49712199,Garden Café,1
-0.22388508,51.49199954,Tesco Metro,13
-0.19113862,51.60334993,Twin Towers English College,2
-0.12306812,51.45714772,Karims Place,1
-0.10132502,51.53667,Wenlock and Essex,1
-0.42458096,51.48014759,Premier Inn,8
-0.2045645,51.50294394,Kyoto Garden Holland Park,1
-0.069558,51.421923,Crystal Palace National Sport Centre - Brazilian Training Camp,2
-0.132051,51.512956,Gelatol Al Naturale,1
-0.49968831,51.43514601,Incidium Ltd,3
-0.08330688,51.52616188,Red Gallery,1
-0.198205,51.3597,Sutton High School,1
-0.15006107,51.26420791,Merstham Railway Station (MHM),1
-0.18758297,51.51341986,Gold Mine,1
-0.108178,51.515715,Corney & Barrow,2
-0.16002446,51.50168526,Bubbleology,2
-0.09357691,51.52407827,The Trader (Smith & Jones),1
-0.14370406,51.51580346,Moxie,1
-0.153294,51.541282,The Landsdowne,1
-0.10247087,51.5275843,City University London,1
-0.16546011,51.51708866,Grosvenor Victoria Casino,1
-0.2152731,51.64781586,Barnet College,2
-0.08746147,51.525687,Old Street Roundabout (Silicon Roundabout),1
-0.11904011,51.53858761,Lewis Carroll Children's Library,2
-0.14492512,51.49658765,The Grosvenor Hotel,1
-0.11831412,51.36504143,Fiveways,1
0.00499544,51.50302512,Armadillo,1
-0.17029001,51.49911697,Trevor Square,1
-0.00943214,51.48349415,Zizzi Greenwich,1
-0.0990057,51.36829748,Galicia,1
-0.091488,51.5212,Sundial Court - Guildhall School of Music and Drama,1
-0.30857767,51.639374,Village Hotel Elstree Borehamwood,1
-0.31616977,51.64768654,Aldenham Country Park,1
-0.28775532,51.46736452,Richmond,1
-0.431052,51.572776,The Orchard,1
0.178824,51.452197,Crayford Tandoori,1
-0.11364,51.462082,Bukowski,1
-0.43117046,51.57185854,The White Bear,2
-0.109004,51.499566,Rich And Stu Sex Palace,2
-0.11707348,51.51045663,Casa Brasil,1
-0.162795,51.516499,Fursecroft Building,2
-0.14385227,51.51131945,Halcyon Gallery,1
-0.08650661,51.50579087,London Dungeon,3
-0.14612177,51.51254796,La Petite Maison,2
-0.08550882,51.52270313,TechHub,2
-0.120491,51.512614,Hi Sushi Izakaya,1
-0.11453032,51.51648779,Lincoln's Inn,1
-0.07899125,51.52633451,Cargo,2
-0.01058,51.480635,"ICONIC House, ICONIC Group Intl.",2
-0.15415192,51.51979918,Paddington Street Gardens,2
0.04388132,51.49421576,Hangar Arts Trust,1
-0.04551977,51.45004552,Honor Oak Park Railway Station (HPA),1
-0.308187,51.40923,Browns,1
-0.10390341,51.54608818,Highbury & Islington Railway Station (HHY),6
-0.16604277,51.4982065,Emporio Armani Caffé,1
-0.10891914,51.5040412,Platform D,1
-0.19971706,51.57394869,Sushimania,1
-0.05910591,51.39510173,South Norwood Country Park,1
0.05665026,51.43173146,The Land Of Nod,2
-0.18924952,51.46179995,Smuggler's Way,1
-0.2834022,51.41232996,Access Self Storage,1
-0.0064818,51.542643,Nike,1
-0.137362,51.51260842,The Old Coffee House,1
-0.14092863,51.53998947,Camden Coffee House,3
-0.487564,51.47272512,Giraffe,13
-0.51528619,51.40561167,The Swarm,4
-0.13269424,51.52756933,Ed's Easy Diner - Euston,1
-0.41928291,51.50567067,H&T Pawnbrokers,1
-0.447093,51.473162,Gate 21B,1
-0.06693721,51.47091165,Frank's Café & Campari Bar,2
-0.1146698,51.50657887,BFI Southbank,7
-0.10490656,51.5202932,Farringdon Railway Station (ZFD),4
-0.15844345,51.43624651,Balham,1
-0.053811,51.548182,Deeney's,1
-0.37887812,51.67215593,TopGolf Watford,1
-0.18805502,51.50514403,Kensington Palace,3
-0.11430114,51.50416054,Arch One Bar & Grill,2
-0.03554004,51.42632578,The Bridge Leisure Cnt,1
-0.16557813,51.554621,The Garden Gate,1
-0.08478,51.512099,Carter Perry Bailey LLP,1
-0.11326969,51.504072,Hole in the Wall,2
-0.4870776,51.47001954,BA Galleries Club Lounge South,5
-0.13220072,51.51431122,Circa,2
0.0256974,51.50867325,Fox @ ExCel,2
-0.12711558,51.51357615,Matilda The Musical,1
-0.14051,51.51832981,The Riding House Café,1
-0.19411345,51.50077116,Kensington High Street,1
-0.11964798,51.50346687,The London Eye,35
-0.14902203,51.53511891,Gloucester Gate,1
-0.100618,51.522639,Foxtons Clerkenwell,2
-0.296437,51.55371857,Euro Hotel Wembley London,1
0.03454558,51.50419025,London Pleasure Gardens,1
-0.13836215,51.53476161,Chicken cottage,1
-0.13918459,51.51302872,Cirque Du Soir,1
-0.27440071,51.49300737,Technicolor,1
-0.01210774,51.46454849,Lewisham Station Bus Stop,1
-0.00386238,51.54083693,Stratford Regional DLR Station,4
-0.01780987,51.45341857,Lewisham Hospital,2
-0.30491352,51.40431929,Surrey County Council,1
-0.27547359,51.52550009,STAPLES Western Avenue,1
-0.08550278,51.51378347,Threadneedles Hotel,1
-0.07162571,51.52396479,Brick Lane Coffee,1
-0.16747713,51.44964769,Wandsworth Common,2
-0.08003712,51.47416621,South London Gallery,1
-0.12357473,51.51083249,Walkabout,7
-0.129459,51.51632645,CBI,1
-0.17426706,51.53296211,Hospital of St John & St Elizabeth,1
-0.12569904,51.51133996,Cybercandy,2
-0.14067872,51.51879671,Scandinavian Kitchen,2
-0.27929306,51.56326727,Wembley Park Underground Station,4
0.17511601,51.3965681,The Oaks,1
0.27167539,51.61077854,Nag's Head,2
-0.07173938,51.51156947,Grange Tower Bridge Hotel,1
-0.39590478,51.65631104,Anne Summers,1
-0.10552883,51.50738021,The Mad Hatter,1
-0.14367365,51.51089745,Juicy Couture,1
-0.17006349,51.46348222,"Clapham Junction Station, Brighton Yard Entrance",3
-0.132576,51.512271,St Anne's Church Courtyard,1
-0.16119157,51.52200409,Future Publishing,1
-0.01039115,51.4918426,Mudchute City Farm,1
-0.161994,51.49925538,Gucci At Harrods,1
-0.131192,51.513232,Balans Café,1
-0.16159148,51.40111784,Canon's Leisure Centre,1
-0.14153284,51.49777215,Roof Garden - Cardinal Place,1
-0.08332014,51.5261409,Mobile Roadie UK HQ,2
-0.077515,51.507446,St. Mary Axe,1
-0.02865672,51.505083,Canary Wharf Pier,3
-0.06992216,51.54633291,C.L.R. James Library,1
-0.15058475,51.50542879,Olympic Family Accreditation Center,1
-0.09447813,51.51684832,88 Wood St,1
-0.19177258,51.50172045,Caffé Concerto,1
-0.3968811,51.66363853,The Flag,1
-0.22657604,51.51329892,Media Centre 'Lawn',1
-0.47605902,51.43524408,Matts Pad,3
-0.09139359,51.50549036,Monmouth Coffee Company,9
-0.01308382,51.51081914,All Saints DLR Station,2
-0.10595262,51.53255181,Angel Underground Station,7
-0.40954113,51.47892401,Travelodge,9
-0.14689631,51.57813368,Highgate Woods,2
-0.48786163,51.38570933,The Meads,1
-0.13099478,51.51184712,Experimental Cocktail Club,1
-0.415803,51.654919,Urban Progress TTPro WBGS,1
-0.179973,51.481998,The Scene,1
-0.07651489,51.51921009,Market Coffee House,1
-0.23772303,51.46950927,Barnes Common,3
-0.12313343,51.51677325,Pearson,5
-0.12056625,51.5127261,Theatre Royal,1
-0.1629815,51.48629832,The Surprise,1
-0.12607522,51.50902496,Costa @ St Martin-in-the-Fields,1
-0.18588245,51.48015681,Chutney Mary Restaurant,1
-0.00675686,51.54135914,London 2012 Ticket Office,1
-0.44614792,51.4710119,Gate 41,1
-0.38098902,51.5928539,Pinner Underground Station,2
0.008036,51.466479,Boulangerie Jade,1
-0.14911096,51.54302618,Barfly,1
-0.12467468,51.49982893,Sports and Social Bar,1
-0.10234237,51.37851602,West Croydon Railway Station (WCY),4
-0.55877497,51.31930141,Wolsey Place,9
-0.092676,51.376284,AMT Coffee,1
-0.019919,51.504987,Café Bean Bag,2
0.01643658,51.40535668,Joe's Kitchen & Coffee House,1
-0.14660779,51.5094691,Annabel's,1
-0.132302,51.428186,Manor Arms,1
0.18625259,51.57938979,The Mercury,1
-0.1947391,51.40227123,Morden Underground Station,13
-0.1883018,51.51427449,Whiteleys Shopping Centre,3
-0.16482298,51.5856419,The Bishops Avenue,1
-0.09913042,51.58030485,China City,2
-0.14564931,51.49754613,The Goring Hotel,1
-0.05697548,51.653798,Toys R Us,2
-0.141209,51.516677,The Cock Tavern,1
0.07039353,51.50086382,Bascule Bridge,1
-0.32183197,51.51066367,Taste Of Lahore,1
-0.15737057,51.39267222,Mitcham Junction Tram Stop,1
-0.44301966,51.64699001,Croxley Cafe,1
-0.14784336,51.52073381,Harley Street,1
-0.133543,51.463941,Bicycle Mews,3
-0.12333713,51.51200361,Burberry Brit,1
-0.15144825,51.51146683,Grosvenor Square,1
-0.0713769,51.552411,Shacklewell Arms,1
-0.0011158,51.47764105,Royal Observatory Greenwich,4
-0.13389587,51.51328298,Profile,6
-0.1487875,51.35725761,Max's Thai Cooking,1
-0.51833153,51.65422759,Chorleywood Railway Station (CLW),1
-0.10597549,51.51435198,Goldman Sachs,1
-0.47236803,51.50996797,West Drayton Railway Station (WDT),1
-0.003146,51.537683,UEL Duncan House,1
0.02630711,51.50808805,ExCeL London,32
-0.08457835,51.5515125,Newington Green,4
0.25482113,51.35847463,Brands Hatch Offices,1
-0.12290581,51.51209717,Union Jacks - Covent Garden,1
-0.194111,51.540894,Rafkin's,1
-0.19232,51.551827,La Smorfia,1
-0.1731205,51.49482426,Crémerie Crêperie,2
-0.128314,51.436813,:DELIRIUM: HQ,1
-0.080938,51.497509,Bermondsey Square,1
-0.1306121,51.51644826,The Carphone Warehouse,2
-0.22586028,51.49297039,The Hop Poles,1
-0.115592,51.518128,Penderel's Oak,1
-0.01877,51.500183,Pan Peninsula Health Club,2
-0.17049312,51.5136225,London Heathrow Airport,2
-0.218903,51.533761,The Shop,1
-0.48440695,51.37303282,Addlestone Railway Station (ASN),1
-0.11491793,51.50739796,National Theatre,15
-0.53612114,51.54585894,Paddock Tank (Pinewood Studios),1
-0.1437664,51.53861403,Goodfare Italian Restaurant,2
-0.133271,51.52790578,Paperchase,4
-0.11692286,51.50587101,Royal Festival Hall,9
-0.43228626,51.62966277,Moor Park Underground Station,1
-0.366021,51.589072,Husyaini Madras ah,1
-0.13354375,51.51123855,Lyric Theatre,1
-0.22707051,51.49168689,TfL Bus 72,2
-0.13505922,51.50967393,Apartment 58,3
-0.07263422,51.41809114,Crystal Palace Railway Station (CYP),2
-0.47258477,51.67281064,Junc 17,1
-0.0359373,51.6093568,Golden Palace,1
-0.208601,51.4200434,News Associates,1
-0.21156027,51.49778571,37 Degrees,1
0.00181177,51.48010108,A2,2
-0.40143013,51.65956558,Bar Bodega,1
-0.12721,51.506626,The Silver Cross,2
-0.17730077,51.51166863,Corus Hotel Hyde Park,2
0.00857186,51.51399873,Canning Town Bus Station,2
-0.22120714,51.50662228,Kitchen Italia,2
-0.236857,51.498402,Lion Television,1
-0.021273,51.527898,Citystay Hotel,1
-0.13614893,51.49709528,Edelman UK,1
-0.12276635,51.52477711,Mobile Monday London At CBI Centrepoint,1
-0.17751184,51.51317724,Stark Industries - Stark Tower,3
-0.13711679,51.51593133,The Profile Group @ Centaur Media,1
-0.13582661,51.51223766,Nokia Design,1
-0.18844128,51.51489877,Odeon Whiteleys & The Lounge,1
-0.22469611,51.57225579,Brent South Shopping Park,1
0.26496904,51.3608279,Brands Hatch Paddock,1
-0.22335827,51.49246964,Hammersmith Bus Station,7
-0.40128517,51.65905199,Instant Tanning Salon,1
-0.102868,51.590667,New Gold Kebab,1
-0.124874,51.515737,Booking.com,1
-0.14192104,51.51435128,Coast,1
-0.13329681,51.42746115,Babington Road,1
-0.20740856,51.51881086,Makan,1
-0.13311,51.51402,The Red Fort,1
-0.12244821,51.51237492,Fred Perry,1
-0.11509122,51.53680992,Bus Stop H,1
-0.0797462,51.50536423,Tom Stoddart Perspective,1
-0.10771751,51.50287917,Capital Kebab House,1
-0.132976,51.51329041,Honest Burgers,2
0.0030899,51.49990049,North Greenwich Bus Station,1
-0.096195,51.532463,Acunu,1
-0.09684384,51.499338,The Ship,4
-0.182116,51.415831,Teeth U Like,1
-0.28204971,51.55739565,Hilton London Wembley,5
-0.1162684,51.50642528,Festival Village,2
-0.10842562,51.52562024,Spa Fields,1
-0.1507776,51.512817,Barley Mow,1
-0.13262228,51.46397682,Kazbar,2
-0.14373315,51.51620077,The Phoenix,1
-0.07611036,51.5305729,London Hackspace,1
-0.01516285,51.47746513,MVMNT,2
0.17939624,51.57522302,The Range,1
-0.1569321,51.52238465,Baker Street Station Bus Stop D,1
-0.14034069,51.508549,Wired UK,1
-0.19248784,51.50986866,Cafe Diana,1
-0.011293,51.584075,Nags Head,1
-0.166671,51.488175,Anthropologie,1
-0.09873211,51.49396927,Elephant & Castle Railway Station (EPH),4
-0.36668204,51.41324998,The World's End,4
-0.10939121,51.5199327,Daddy Donkey,2
-0.12691936,51.51472113,Hotel Chocolat,1
-0.273981,51.464068,The Lofty Turtle,1
-0.00467034,51.51055465,Global Switch 1,3
-0.16048162,51.51507528,The Marble Arch Hotel (By Montcalm),1
-0.18354893,51.41267123,William Morris Riverside Pub,3
-0.0755917,51.5482991,The Railway Tavern,1
-0.28143297,51.55703652,T.G.I Fridays,1
-0.38454226,51.64592131,Auntie Maew's Home ,1
-0.140324,51.50583,"The Stafford London, by Kempinski",3
-0.05005382,51.37434433,Abra Kebabra,1
-0.08235,51.522893,First Step Cafe,1
-0.174009,51.515816,Tudor Court Hotel London,1
-0.09046555,51.51144012,Cannon Street Railway Station (CST),7
-0.102468,51.54599,Maison D'Etre Cafe,1
-0.10469735,51.50586734,The Prince Albert,4
-0.1523164,51.5097786,Richoux,1
-0.11183823,51.58332363,"Colin, Anna And Harley's Yellow Flat",1
-0.07449716,51.555987,Metolino,1
-0.14444161,51.49666081,Victoria Square,2
-0.48932076,51.47170693,Security/Passport Control,3
-0.119413,51.559584,The Swimmer at The Grafton Arms,1
-0.01664472,51.60135027,Walthamstow Stadium,2
-0.145575,51.496415,True Potential LLP,1
-0.12233824,51.50723664,Embankment Underground Station,3
-0.153045,51.51719391,The Wallace Collection,1
-0.11503631,51.51826017,Berlitz London,1
-0.13293954,51.51257385,Café España,1
-0.39229989,51.44113532,Hanworth Air Park Leisure Centre & Library,1
-0.100636,51.371417,Black Sheep Bar,1
-0.480963,51.345438,ScrewFix,1
-0.267871,51.65653493,Big Brother House,1
-0.148676,51.481403,Pestana Chelsea Bridge Hotel & Spa,2
-0.39649251,51.66440882,Platform 9,2
-0.080192,51.530067,The Macbeth,1
-0.152162,51.515914,Devonshire Arms,1
-0.2182608,51.51089514,Monsoon HQ,1
-0.234799,51.490463,The Dove,2
0.196682,51.312005,Mcdonald's,1
-0.0997889,51.50552375,The Table,2
-0.13409,51.518302,Addiction Worldwide HQ,5
-0.21062851,51.49696169,Olympia,2
0.00866424,51.53458578,Newco Products,2
-0.081025,51.500161,Tanner Street Gardens,2
-0.11904716,51.51809011,Gym Box,1
-0.190161,51.526827,Paddington Tennis Club,1
-0.17294884,51.64854281,New Barnet Railway Station (NBA),1
-0.07184029,51.50305281,Blueprint Café,1
-0.22658765,51.500425,Richford Gate Primary Care Centre,1
-0.20674467,51.4907896,Famous 3 Kings,1
-0.11871196,51.35389154,Grays Truck And Van. Iveco,1
-0.23135872,51.51226561,Russian Embassy School,1
-0.12709817,51.5170361,Bookmarks Socialist Bookshop,1
-0.234571,51.472202,Rydell High School,2
-0.12022595,51.48463366,Bonnington Square,1
-0.46468735,51.47389891,Gate 36,1
0.05667881,51.43171607,The Bus Stop Outside The Library,1
0.0881056,51.53074593,IG11 7XH,1
-0.08065702,51.498971,OTHERmedia,1
-0.400539,51.341107,The Fairmile,1
-0.35983891,51.57230368,Twyford Road,1
-0.122207,51.491896,Tamesis Dock,2
-0.00623,51.542645,MINI Store,2
-0.16279936,51.52165506,The Landmark London,1
-0.009806,51.477414,The Creaky Shed,2
-0.27440013,51.54414779,Wembley Point,5
-0.25718898,51.45398518,Roehampton Gate,2
-0.11336549,51.52653719,The Union Tavern,1
-0.14389515,51.51507236,River Island,1
0.070148,51.500752,Thames path,3
-0.11469086,51.51503649,LSBF,1
-0.12573123,51.52080724,Hult International Business School,3
-0.13100254,51.63350846,Millionhairs,1
-0.08119583,51.30969147,Whyteleafe Railway Station (WHY),1
-0.13513918,51.51370568,Yauatcha,1
-0.40005035,51.49384098,David Lloyd,1
-0.12646616,51.512859,Dalla Terra,1
-0.18449946,51.50631392,The Round Pond,1
0.09956488,51.44666712,Home,15
-0.31220869,51.61728523,Movers and Shapers,2
0.0708008,51.52246285,Beckton Triangle,1
-0.151578,51.514649,Food Garden Cafe,1
-0.120163,51.428166,Valley Road Surgery,1
-0.08263269,51.51955174,Deutsche Asset Management,2
-0.14717281,51.54212144,Cyberdog,3
-0.20582973,51.53059885,Zepo's Cave,1
-0.00803482,51.47951802,Heap's Sausages,1
-0.10028051,51.64650654,Enfield,5
-0.150219,51.51504585,Sofra,1
-0.145461,51.51276,Rocket Mayfair,1
-0.01365403,51.45746525,Two8six,4
-0.12458324,51.5080747,Charing Cross Railway Station (CHX),20
-0.10334015,51.54614823,Highbury Corner,1
-0.01789309,51.54023859,Great British Garden,2
-0.05580604,51.51173391,Shadwell DLR Station,5
-0.09528072,51.37645242,Carolyn House,4
-0.33765793,51.58120323,St George's Shopping & Leisure,1
-0.13239593,51.52496202,UCLU Bloomsbury Cafe,1
-0.14819763,51.5186843,British Dental Association,1
-0.27950764,51.55582174,Wembley Stadium,9
0.18167675,51.27686045,Sevenoaks Railway Station (SEV),2
-0.27452938,51.32048515,Hylands House,1
-0.12017906,51.51744251,Holborn Underground Station,2
-0.15734007,51.4990298,Motcombs,1
0.04391273,51.61685722,Just Between Friends,1
-0.191904,51.515488,TCS Media,1
-0.10359764,51.54585466,Buffalo Bar,1
0.07019849,51.50091033,Royal Victoria Gardens,7
-0.12771606,51.51610055,Zizzi,9
-0.07988622,51.51822236,Dirty Dicks,1
-0.12944341,51.5104619,Odeon Leicester Square,4
-0.00824787,51.54171856,Olympic Park,26
0.0766954,51.65705884,Prescott Green,1
-0.15409713,51.51494523,The Rose,1
-0.40447817,51.38303122,Kt12 3jj,1
-0.019236,51.584242,Village Food Court,1
-0.135574,51.511677,Scoop,2
-0.00660896,51.54342593,Franco Manca,3
-0.27185558,51.45847688,Sheen Lawn Tennis & Squash Club,1
-0.141278,51.5096,Joseph,1
-0.12142897,51.50852878,Victoria Embankment Gardens,1
0.01042843,51.37633454,Hayes Railway Station (HYS),2
-0.13668537,51.51073233,Rapha Cycle Club London,4
-0.131079,51.49491819,The Loose Box,1
-0.07181297,51.52481,Benets of Cambridge,1
-0.131063,51.513214,Bar Soho,1
-0.15119076,51.5553181,Gospel Oak Railway Station (GPO),1
-0.19251823,51.60093312,Finchley Central Underground Station,8
-0.196869,51.473695,The Thai Restuarant,1
-0.189423,51.480927,Frankie's Sports Bar & Grill,1
-0.21547794,51.48863852,Margravine Cemetery,1
-0.143452,51.522035,Efes2,1
-0.50355495,51.39209364,Simpsons Chicken,1
-0.07415771,51.52399149,Les Trois Garcons,1
-0.22148609,51.50793446,Monsoon Accessorize,1
-0.12292018,51.52048508,Pizza Express,22
0.09035826,51.57560598,Newbury Park Underground Station,1
-0.21712675,51.46751617,Glendarvon Mansions,4
-0.243828,51.465165,Rosslyn Park Rugby Club,1
-0.09129308,51.50561758,Wright Brothers Oyster & Porter House,2
-0.15900135,51.51379043,Cumberland Hotel,9
-0.04660606,51.52182863,My Old Dutch Pancake House,1
-0.187738,51.515915,Italian Pizza Connection,2
-0.08823395,51.56077111,Clissold Park,3
-0.132372,51.51319742,Duck Soup,1
-0.08511722,51.51976132,Slim Jim's Gym,1
-0.09776115,51.51467176,Itsu,5
-0.05503653,51.49485331,Southwark Park,1
-0.18759581,51.51241701,Subway,14
-0.07884223,51.50532253,37 Degrees Health & Fitness,6
-0.07131,51.46189,Goose Green Playground,1
-0.058396,51.5419668,Pub on the Park,3
-0.098657,51.64283849,The Gryphon (Harvester),1
-0.21639354,51.37303704,Kieron's and Kasia's pad,2
-0.08737442,51.52039104,Wasabi (Finsbury Pavement),1
-0.00940348,51.55052613,Dining Hall - Athletes Village,4
-0.08294463,51.50601793,Orient-Express HQ,1
-0.15206649,51.51570774,Caffe Fratelli,1
-0.1677796,51.55570218,Keats House,1
-0.21811073,51.59369925,Dellamorte's Dungeon,1
-0.10433656,51.50382658,TFL Palestra,1
-0.162765,51.611637,Bus Stop FP,3
-0.05546566,51.54562404,Hackney Empire,1
-0.53520057,51.31152339,Hoebridge Golf Centre,2
-0.15540591,51.5539575,King's club,1
-0.15523316,51.52247001,Westminster Business School,1
-0.08321897,51.52342563,Zetland House,1
-0.49199745,51.38219432,Abbey Rangers FC,1
-0.131313,51.472217,Restaurante And Café- A Lua,1
-0.17549694,51.51175728,Lancaster Gate Underground Station,1
-0.18951146,51.48096742,Millennium & Copthorne Hotels at Chelsea F.C.,2
-0.107424,51.503134,The Cut Bar and Restaurant,1
-0.007469,51.5427,Superdry,1
-0.13657301,51.52022334,Bubbledogs,1
-0.07469839,51.51976071,The Luxe,5
-0.41035652,51.59666793,Northwood Hills,1
-0.02485067,51.52687014,Bow Road Underground Station,1
-0.40941238,51.47905765,The Avenue (Bus Stop CS),2
-0.20690021,51.51164042,Westfield,2
-0.08814564,51.50610209,1 London Bridge,1
-0.13754368,51.50882259,BAFTA,7
-0.22821875,51.49263688,Select & save,1
-0.14456,51.495211,Reunion,1
-0.11853218,51.512642,The Waldorf Hilton,2
-0.275026,51.616026,Me Love Sushi,1
-0.49788237,51.60943566,April Six,1
-0.07906237,51.51887984,Bishopsgate Institute,1
-0.061661,51.536761,Ephesus,2
-0.3583511,51.45666598,The Vicarage,1
-0.15675433,51.51552699,Hyatt Regency London - The Churchill,1
-0.16255825,51.49871475,Harrods Ice Cream Parlour by Morelli's,1
-0.177969,51.606873,Walk In Centre FMH,1
-0.30180216,51.4632722,Richmond Railway Station (RMD),9
-0.124959,51.512803,The Garden Pharmacy,1
-0.1510191,51.493662,Tomtom Cigars,1
-0.005196,51.510497,Kcom,1
0.215804,51.444877,Crush,1
-0.26922941,51.65570525,Tesco Extra,19
-0.140764,51.523998,Honey & Co,1
-0.1245478,51.51718251,Mr. Brainwash exhibition,1
-0.15784264,51.54032979,The Queens,1
-0.0883385,51.60439445,Empire avenue,1
-0.08042336,51.43274177,Sydenham Hill Railway Station (SYH),1
-0.14185667,51.51535946,NikeTown,7
-0.08569765,51.49413759,TfL Bus N1,1
-0.15943945,51.50170591,Harvey Nichols Rooftop,1
-0.459249,51.47089,Turkish Airlines Flight TK1986,1
0.27003304,51.48533894,Go Outdoors,1
0.00361562,51.50039472,North Greenwich Underground Station,2
-0.45052528,51.47264254,Caffè Nero,32
-0.170932,51.424954,Trafalgar Arms,1
-0.10034499,51.50776418,Thames Festival,17
-0.044835,51.538011,Loafing,1
-0.16291275,51.50085486,HSBC @ JWT,1
-0.18187523,51.51841056,Vodafone HQ,2
-0.134949,51.50778,Super Dry,1
-0.16017136,51.50197713,Bar Boulud,2
-0.149578,51.48357,Chelsea Bridge Tea Stall,1
-0.09069093,51.52502594,The Masque Haunt (Wetherspoon),1
-0.13303159,51.51136753,Fratelli La Bufala,2
-0.381017,51.593653,Silver Grill Cafe,1
0.00339948,51.50262859,London 2012 venue - North Greenwich Arena,57
-0.07535934,51.49998064,St John Bakery,1
-0.172804,51.515228,Days Inn,2
0.00200623,51.41698679,Bromley Court Hotel,1
-0.45181235,51.47229381,United Airlines (UA) Check-In Area,2
-0.132227,51.512966,Joe & The Juice,1
0.001357,51.484056,Hardys,2
-0.00594995,51.48874104,The Great Eastern,2
-0.17764484,51.51734569,Platform 7 (Heathrow Express),3
-0.282823,51.55811,Wembley Arena,22
-0.17455255,51.49382801,Lamborghini London,1
-0.136532,51.51379467,Ukai Sushi,1
-0.10355473,51.53685973,Masala Zone,1
-0.087802,51.526661,Plan International,1
-0.51725864,51.40394449,Rumba Rapids,1
-0.16614999,51.42660877,Gala Bingo Tooting,2
-0.11478245,51.492387,Lilian Bayliss Old School,1
-0.02930646,51.48872706,Aragon Tower,2
-0.080686,51.526138,O-Food,1
-0.12313822,51.51161972,Fuel,1
-0.11981474,51.51687218,Harlequin Restaurant,4
-0.17989723,51.5408007,9 Langtry Walk,1
-0.09076222,51.51148468,Tallow Chandlers' Hall,1
-0.30437708,51.58721643,The New Moon (Wetherspoon),1
-0.13981819,51.5156599,New Look,1
-0.1609426,51.49730059,Pizzeria,1
-0.12676,51.528901,Fuller's,1
-0.1279104,51.51158369,Noodle Bar (Lan Zhou La Mian),1
-0.12436297,51.52217216,President Hotel,1
-0.109684,51.502281,The Pit Bar,1
-0.37636105,51.6458783,Bushey Health Centre,1
-0.057195,51.545024,Hackney Service Centre,1
-0.10254622,51.52254959,Nestoria HQ,1
-0.1920075,51.51925766,Paddington Express T3,1
-0.1704016,51.4960764,Rembrandt Hotel,1
-0.27539045,51.4915194,Gunnersbury Railway Station (GUN),2
-0.10443677,51.53136183,Evently HQ,4
-0.2615422,51.49243624,Patisserie Valerie,10
-0.10314684,51.54315249,The Hope and Anchor,1
-0.141021,51.516366,Ryman Stationery,1
-0.09591579,51.51373701,One New Change,2
-0.10619402,51.53407014,O2 Academy Islington,4
-0.20467734,51.53473169,The Alice House,2
-0.136552,51.512694,Sun & 13 Cantons,1
