longitude,latitude,fsq_venueName,fsq_venueCount
-73.97328615,40.75036183,AtmosphereProximity,1
-73.8705126,40.6728312,B14 (Euclid Ave),2
-73.97694517,40.75285447,Hudson News - Grand Central Terminal,2
-73.70231516,40.77727094,North Shore University Hospital ER,2
-73.91960078,40.71093611,"5th Avenue, NYC",1
-73.97365077,40.75528194,Hyatt 48 Lex,1
-73.99226282,40.75406968,Houndstooth Pub,2
-74.00363119,40.73135499,Bosie Tea Parlor,1
-74.10707446,40.57025018,New Dorp High School,1
-74.01588829,40.70656686,Le Rivage,3
-74.11769611,40.80345983,Weight Watchers,4
-73.9908568,40.73977232,Nike Running Flatiron,1
-74.11812338,40.58119781,Den Of Iniquity,1
-73.9991723,40.72266624,Brandy Melville,1
-73.97284725,40.7859995,Trattoria Machiavelli,1
-74.04334853,40.882665,Kebab House,1
-73.99952352,40.71471618,Le Baron,6
-73.9892212,40.69918101,NYC Office of Emergency Management (OEM),7
-73.94186034,40.78381751,Party rockin',3
-73.71559474,40.78118,Orthopedic Associates of Manhasset,1
-74.00699079,40.747825,Center 548,11
-74.01072979,40.70712443,Financial District,3
-73.94736815,40.74555989,MoMA PS1 Contemporary Art Center,22
-74.089743,40.58971,Manfredi Fiat,1
-74.15058387,40.53781995,Bushido Dojo,1
-74.011928,40.703963,Giuliano's,3
-73.96860838,40.79123183,Gabriela's Restaurant & Tequila Bar,1
-73.98060109,40.57469135,Coney Island Flea Market,1
-73.98393554,40.7271068,Burger Shop,1
-73.99392709,40.72269761,Haute Hippie,1
-73.87604447,40.76343494,Buccaneer Diner,1
-73.97596,40.681098,Sun In Bloom,1
-73.93401254,40.704011,Green Fitness Studio,4
-73.88307006,40.64693688,In Front Of My Tv,1
-73.98491119,40.74075166,Shanghai Panda Sanctuary,1
-74.04669972,40.7206242,Wonder Bagels,3
-74.13759576,40.82563696,Spuntino Wine Bar and Italian Tapas,1
-73.84464741,40.72055884,Austin Street,1
-73.988418,40.72326064,Boca Chica,1
-73.87419172,40.87915958,Good News Christian Church,1
-74.00734398,40.7431389,Morimoto,2
-73.92422225,40.81433701,The Real 300 (Patterson houses),1
-73.96486985,40.693647,Sapolo,1
-74.04586208,40.78676295,Harmon Meadow,1
-74.18930054,40.74556629,People's Choice Lounge,1
-73.985834,40.76196,Toloache,2
-73.938498,40.79736524,El Paso Restorante Mexicano,1
-73.9950335,40.72798238,West 3rd Common,3
-73.9573431,40.68919682,Dough,1
-73.71836391,40.85040529,Kenn and Diane's,6
-73.99055958,40.73652697,Union Square Greenmarket,16
-73.69318247,40.75628049,1985 Marcus Avenue,2
-74.01034546,40.67721176,Victoria's Red Hook Palace,1
-73.99715245,40.72958813,Bobst Library (NYU),6
-74.00909419,40.72590821,Digiday HQ,1
-74.00922043,40.70622218,Cipriani Wall Street,6
-74.12921179,40.90956972,Elmwood Park Memorial High School,1
-73.989308,40.729287,Yoga to the People,8
-74.25344733,40.8911409,Willowbrook Mall Public Safety,1
-73.88104021,40.73461464,Que Sabor,1
-74.139808,40.731852,Met Foodmarkets,1
-73.993216,40.727186,Great Jones Spa,2
-74.00063278,40.63396697,Shvuger's House,3
-74.16436231,40.73433704,Track 3,1
-73.99539567,40.72493011,Puck Building,3
-73.9946387,40.73454584,photobooth 1,2
-73.79583104,40.70699661,Jamaica Colosseum Mall,2
-74.00421739,40.7204694,360i,6
-73.953136,40.808033,Chocalat lounge,1
-73.98981805,40.74499556,Rewind.Me HQ,4
-74.16155281,40.80255327,Belleville High School,3
-73.846884,40.749676,US Open President's Box - Arthur Ashe Stadium,1
-73.9987545,40.729751,Amity Hall,1
-73.9661407,40.7841484,"Time Square, New York",1
-73.94415935,40.68415029,The Meat Market Brooklyn,1
-73.83821049,40.7230715,PS 196,2
-73.976498,40.785677,Hi-Life,2
-73.97472978,40.78042912,American Museum of Natural History - Creatures of Light,4
-74.00200718,40.73963321,Stash,2
-73.991363,40.757337,Green Trees,2
-73.92939473,40.85489164,191st St Station,1
-73.95321159,40.63170567,James Hall,2
-73.9902829,40.72574081,Whiskey Town,1
-73.993585,40.752188,Tick Tock Diner,8
-74.119541,40.84179737,Tryon Field,1
-73.987932,40.722257,Karaoke Boho,5
-73.91834636,40.70142504,MURDA AVE,1
-73.99071332,40.75076775,Macys,3
-73.9854564,40.75272564,Sushi & Deli Box,1
-73.99412221,40.75123109,Mta M20,1
-74.04504865,40.71615148,Taqueria Downtown,1
-73.98328702,40.76014609,Bella Napoli,1
-73.94213301,40.6002304,Brennan & Carr,3
-73.95733863,40.77545846,124 E 84,1
-74.07840675,40.59870512,Dongan Hills,1
-73.9958668,40.76341552,Neo@Ogilvy,1
-73.78896895,40.59386609,66th St Beachhouse,1
-74.00214694,40.738206,Tea & Sympathy,1
-73.93824101,40.70827723,The Wick,1
-74.2085978,40.80807167,Yogic Chai Cafe,2
-74.21747687,40.66501314,Union County Kellogg Building 3rd Floor,1
-73.824741,40.686081,Ozone Park - Lefferts Blvd ( A ) & ( S ) Lefferts Blvd Shuttle,1
-73.88289492,40.74730698,Taqueria Tulcingo,1
-73.94837379,40.74530618,"Long Island City, NY",2
-74.01495095,40.79068,Pollo Supremo,1
-73.96699905,40.77371687,Central Park - Conservatory Water,1
-73.95717791,40.68721847,One Last Shag,4
-73.831815,40.706115,"Kew Gardens, NY",3
-73.96929932,40.68717575,Bon Chovie @ Brooklyn Flea,1
-73.93522149,40.68294244,Beso,2
-73.994151,40.731215,Pop's Of Brooklyn,2
-73.98967713,40.73898202,Beecher's Handmade Cheese,6
-74.12236722,40.89352727,Pizza Town USA,1
-74.00161121,40.7244789,Bar Method Soho,2
-74.08881206,40.71274011,NJCU GYM,1
-73.98608565,40.73281984,Beyond Sushi,1
-73.97916054,40.76340666,Estiatorio Milos,1
-74.073662,40.912369,Anny's Humble Abode,4
-73.99445506,40.72680554,BONDST,3
-73.85137595,40.72788866,Asian Bowl,1
-73.95688518,40.7183163,Pop's Burger,3
-73.82568945,40.68957168,"Richmond Hill, New York",1
-73.91640874,40.86486691,Manhattan Uptown (North Of 59th Street) New York,1
-73.99940184,40.73403519,CO Bigelow Pharmacy,1
-74.04954537,40.75223524,The couch,1
-73.99663579,40.72546967,Blue Man Productions,4
-73.96902474,40.67752967,Plan B,1
-73.845782,40.75052,Panasonic Gallery - US Open,2
-73.909203,40.699894,Caribe Star Restaurant,1
-73.87307567,40.82468659,"Bronx, NY",1
-73.957422,40.726805,The Diamond Bar,2
-74.01555548,40.79735687,Dairy Queen,3
-73.98225397,40.77548185,M104,1
-74.03012414,40.73625445,WindMill Of Hoboken,2
-73.951134,40.7241694,Calexico,6
-73.88536402,40.56736481,Building 219,1
-73.95361626,40.73610037,The Robes Pier,1
-73.8435001,40.85400231,Dolphin Fitness,4
-73.73115314,40.77479409,Napoli Pizza,2
-73.91840664,40.75877063,The Queens Kickshaw,4
-73.89918461,40.74653141,SriPraPhai Thai Restaurant,5
-73.988642,40.73107123,Bodhi Tree,2
-73.91563943,40.7020892,MTA - L Train Shuttle Bus,1
-74.017799,40.676755,Steve's Authentic Key Lime Pies,2
-74.03254151,40.72655953,Newport Town Square,3
-73.979801,40.77776,Stationery & Toy World,1
-74.21165943,40.88207939,ShopRite Liquors,1
-73.98369312,40.76598153,Otarian,2
-73.98691412,40.7501432,VivaKi Nerve Center,1
-73.99356365,40.74777716,330 7th ave,1
-73.87331111,40.67389056,Lee Good Taste,2
-73.96751523,40.79245326,Columbus House,2
-73.98887973,40.76087145,Beckingham Palace,1
-73.97196337,40.75719778,Café Metro,4
-73.96876646,40.75451802,The Press Box,1
-73.98212771,40.7442413,LexParc,5
-73.98454963,40.72881428,Sapporo East,2
-73.96805475,40.80007356,Papasito,1
-74.00379,40.738337,Organic Avenue,5
-74.05947037,40.79424825,Nagpal House,1
-73.9910531,40.76169095,Barrage,9
-73.99734223,40.73644,Murray's Bagels,3
-73.98149371,40.77406218,Live with Kelly,3
-73.81478,40.738785,Expressway Wine & Liquor Store,1
-73.97641715,40.75980577,Juicy Couture,1
-73.96537147,40.79703522,109th Street,3
-74.08119965,40.62419891,Tekken World,1
-73.70375633,40.83913875,harbor Q,1
-73.975642,40.687093,Academy Restaurant,1
-74.00428604,40.74364473,Verde Quarters,4
-73.990117,40.671917,Brooklyn Homebrew,1
-74.10593884,40.61550438,Clove Lake Park,1
-73.99553239,40.72463254,REI,1
-74.00925994,40.85871379,New Overpeck Park,1
-73.97533815,40.75133978,Grayling New York,2
-73.97572269,40.75259907,Graybar Building,9
-73.792838,40.787916,Doggie Park,2
-73.98691986,40.76351285,VLADA Lounge,4
-73.988872,40.727144,Lit Lounge,2
-73.98362563,40.75219378,Twenty Below,1
-73.99764195,40.71464248,Joe's Shanghai 鹿鸣春,10
-73.98038874,40.77803102,Energy Kitchen,4
-73.90842604,40.70512898,Krow Studio,1
-74.00682752,40.73965042,Paradou,1
-73.9816571,40.72510952,Korzo Haus,1
-73.77200603,40.75488602,Gym,1
-74.00430833,40.6813937,Jalopy Tavern,1
-73.99957,40.71856,Wyndham Garden Inn Bowery,1
-73.97926384,40.82766968,Palisadium,1
-73.97541046,40.68710604,MTA Subway - Fulton St (G),2
-73.98470458,40.74287448,Sugar Inc,1
-73.89327049,40.77036933,Chopsticks,1
-73.99333599,40.85143673,Garden Of Tranquility,1
-73.99736461,40.7216609,Mexican Radio,2
-73.9998265,40.7990798,James L Braddock Park Tennis Courts,1
-73.99589549,40.72656833,Corner Shop Cafe,2
-73.98581796,40.72222989,Open House,1
-74.018393,40.707953,Battery Park City Boardwalk,3
-73.97532093,40.74954563,Memorial Sloan-Kettering Cancer Center Offices,1
-74.07661129,40.89418589,Green Apple Cleaners,1
-73.99580941,40.76352457,Ogilvy & Mather,10
-73.99352,40.71370097,Tan Wong,1
-74.00715461,40.72892143,Hot 97,3
-74.00598397,40.70938836,Liam's Pub & Restaurant,2
-73.9519947,40.82732932,Riverside Drive,1
-73.979462,40.781682,SoulCycle,3
-73.98231983,40.76884176,Anderson Live,2
-73.795893,40.648197,AA JFK - DCA 3792,1
-73.92350439,40.761154,Gleason's,4
-73.81636133,40.73731571,Rathaus Hall,3
-73.89759765,40.89161798,Jake's Steakhouse,1
-73.953507,40.744595,New City Kitchen Express,1
-73.75344257,40.68208698,Intermediate School 59,1
-73.99851235,40.76784478,Carnival Glory,2
-73.90296257,40.74567966,MTA Subway - 61st St/Woodside (7),8
-74.011346,40.706262,Nimbo HQ,1
-73.99625703,40.74446089,RUB (Righteous Urban BBQ),6
-74.00501469,40.741347,Pop Burger,1
-73.905204,40.741308,Laundromat,1
-74.12384975,40.82698745,Rutt's Hut,3
-74.17684116,40.79726156,Dad's Casa,1
-74.04040587,40.62812038,Shore Road,2
-73.77628681,40.75878346,Bayside Diner,1
-73.98848087,40.7265872,Tropicalia In Furs,1
-73.98031354,40.77130374,Vision Church,1
-73.99539048,40.71883573,Capitale,2
-73.75630974,40.75157598,Benjamin N. Cardozo High School,1
-73.982187,40.749902,Café China,2
-73.97610247,40.75383839,Naples 45 Ristorante e Pizzeria,1
-73.98132423,40.76370865,Cafe Oliviero,2
-74.0037552,40.732456,Surya,1
-74.09545418,40.64330075,Adobe Blues,1
-74.00376678,40.72152647,TRCO,1
-73.99000168,40.71815191,Barrio Chino,3
-73.980944,40.763237,Oldcastle Pub,2
-73.98969179,40.73779799,ABC Kitchen,5
-74.00400419,40.75196034,Stadium,1
-73.94800901,40.81702467,135th Street & St. Nicholas Ave.,1
-73.99757624,40.76362499,Pacha NYC,16
-74.10565853,40.86695759,NJT - Garfield Station (MBPJ),1
-74.04872495,40.72659834,New Music Box Cafe,1
-74.16858796,40.65930664,AMC Loews Jersey Gardens 20,3
-73.945992,40.711474,The Second Chance Saloon,2
-74.00949013,40.71485891,The Mysterious Bookshop,1
-74.02876429,40.74442387,Hoboken Hot Bagels,1
-74.004142,40.73278563,A.O.C. L'aile ou la Cuisse,1
-73.92640114,40.82893147,Ketel One Lounge,2
-73.99743347,40.72112476,Southside Night Club,2
-73.82435689,40.71642456,GCParkway & Jackie Robinson Interchange,1
-74.03611422,40.7247545,The Westin Jersey City Newport,2
-73.99210136,40.73782138,Kenneth Cole,9
-74.0358876,40.60924558,The Priest-in-Chargery,1
-73.9948166,40.72888177,Hebrew Union College,1
-73.82765381,40.88561217,Goodyear,1
-73.98413067,40.75903069,Pig 'n Whistle,3
-73.92663915,40.8661365,Bust-A-Sud Lounge,1
-73.957991,40.713852,Miller's Tavern,4
-73.985602,40.852773,Plaza West,1
-73.95016361,40.69277082,Handsome Soldier Studios,1
-74.00097997,40.72910081,1849,1
-73.99377788,40.72774409,24 Saint Marks Place,1
-73.92971621,40.69788149,5Q Bitches!,1
-73.70525202,40.64454746,National Grid LIPA,1
-74.00005031,40.74141611,Barneys Warehouse Sale,1
-73.98404717,40.73182,Nowhere,5
-73.96023452,40.76139092,Anatolia,1
-73.972278,40.677028,Sharlene's,1
-73.95177658,40.68990543,MTA Subway - Bedford/Nostrand Aves (G),12
-73.95361626,40.78549052,"Neverland (2nd Star To The Right, & Straight On Till Morning)",3
-73.989415,40.7605885,Don't Tell Mama,2
-73.81504253,40.71839992,Mr. Machine Laundromat,1
-73.95828724,40.74485099,Gantry Plaza State Park,4
-73.70249033,40.838561,Amalfi Restaurant & Pizzeria,2
-73.97854644,40.75849045,Back to Football -Giants v. Cowboys,2
-73.95631119,40.77124137,Iggy's,3
-74.16073288,40.60718826,Mike's Unicorn Diner,2
-73.94064903,40.75116648,Scandals NY Gentlemen's Club,1
-73.997779,40.751399,Tiger Beat,1
-74.01161331,40.70184106,Governor's Island Ferry Waiting Room,3
-74.00720626,40.71227467,City Hall Park Gas Lite Bulbs Fountain,1
-73.92311811,40.82840736,Joyce Kilmer Park,4
-73.99294001,40.74925722,Renzo Gracie Academy,5
-74.15950586,40.86459243,Grande Saloon,1
-73.95422758,40.58725299,"Sheepshead Bay, NY",1
-74.00322949,40.73267114,SushiSamba 7,4
-74.0115215,40.63569071,99 Bbq,1
-73.959401,40.59855225,Winly Seafood Restaurant,1
-74.01202073,40.71325781,Fast Company,1
-74.05827999,40.91492331,The Outlets at Bergen Town Center,4
-73.98515224,40.75925299,W New York - Times Square,36
-74.0304088,40.62494992,Caffe Cafe,4
-74.13000318,40.83031855,Port Logistics,2
-73.99379,40.726468,Oak Clothing,3
-73.84331167,40.743144,Flushing Meadows Corona Skate Park,1
-73.93579555,40.79550441,Camaradas El Barrio,1
-73.95388,40.806318,Moca Lounge,1
-74.05822182,40.88428122,Active Orthopaedics & Sports Medicine,2
-73.88468645,40.74483251,La Fusta,1
-73.98977,40.718025,BabyCakes NYC,1
-73.98447502,40.75897651,Pizza,1
-73.95927429,40.76338121,Gristedes Supermarkets #512,1
-73.99414301,40.76121149,Hallo Berlin,2
-73.88802256,40.85502941,Ferragosto 2012,1
-73.98165136,40.77321191,WABC-TV,5
-73.70886125,40.77602173,Fresh Meadow Country Club,1
-73.73013314,40.68432108,Grandpop's,1
-73.91465769,40.76376211,Queens Comfort,1
-74.16179985,40.91514424,Limited Edition House of Experts,2
-73.95425628,40.6397822,Alex Deli Grocery,1
-73.99712563,40.73638064,Segafredo Zanetti Espresso New York,5
-73.95056315,40.81094,Unity Funeral Chapels Inc.,1
-73.97590635,40.76004983,Rolex Watch USA Inc.,3
-73.978736,40.790622,NYIT Residence Hall,1
-73.8200777,40.70397321,Beer Garden,1
-73.97866122,40.72993511,ABC Animal Hospital,1
-74.02709126,40.7395917,Trinity Restaurant Bar & Lounge,2
-74.14632914,40.79751876,Signature Fitness,1
-74.00803259,40.73885256,Nonno Gourmet,1
-74.01106817,40.706242,Bobby Van's,3
-74.2147485,40.88480117,Sarar,1
-73.98887973,40.68178466,Casa De Jugetes,1
-73.868669,40.774384,United Airlines Flight 388,1
-74.004252,40.7255768,MTA Subway - Spring St (C/E),9
-73.9471328,40.8056278,Askeya By Marion,1
-73.8808335,40.86187429,conservatory gate/visitor center,1
-73.933444,40.705787,Momenta,1
-74.03192578,40.62178434,Trace,2
-73.99945923,40.76124577,LL's Humble Abode,1
-74.00742531,40.7420954,Milk Studios,24
-74.07647936,40.91602072,Jamba Juice,17
-73.74190168,40.65635876,Rosedale,1
-73.9800936,40.724664,East 7 Baptist Church,2
-73.77151279,40.764406,Cinco De Mayo,1
-73.98993663,40.74203393,Birreria at Eataly,14
-74.07671213,40.91725826,GUESS,3
-73.99049,40.76136,Amy's Bread,2
-73.923908,40.761151,Yoga Agora,2
-73.992096,40.71804,Fontana's,4
-73.96765298,40.75637696,Turtle Bay Grill & Lounge,5
-74.00976419,40.7034482,S&P Capital IQ,3
-73.996269,40.728773,NYU Stern Advising 6F,1
-74.01149855,40.709425,Panini & Company,1
-73.987084,40.747934,Gagopa Karaoke,1
-74.02514935,40.68548706,Picnic Point @ Governors Island,1
-73.79151102,40.78939155,watching yankee game,3
-74.07624987,40.6277456,Bay House Bistro,1
-73.97862911,40.76624155,Jumeirah Essex House,7
-73.98727568,40.72842473,Cafe Orlin,4
-73.92820065,40.86631938,Mamajuana Cafe,4
-73.9999795,40.73065726,La Lanterna di Vittorio,1
-73.9931345,40.73577906,Korilla BBQ,4
-73.97282429,40.75881334,Racquet & Tennis  Club,1
-73.94910168,40.77294031,Peaceful deli and grocery,1
-73.94732223,40.74559827,Warm Up PS1 MoMA,2
-73.9287001,40.8508759,Morgenstern Residence Hall,1
-73.9423167,40.66925131,770,1
-74.00049218,40.73011839,Imperial Woodpecker Sno-Balls,2
-73.96348,40.7188187,Móle,1
-73.98228267,40.66562872,Applewood,1
-73.99398564,40.74752761,211 west 28th street,2
-73.94979624,40.7306519,Yashar Gallery,1
-73.908327,40.678152,NY's #1 Driving Academy,1
-73.98725273,40.76033223,Copacabana Nightclub,4
-73.94708114,40.74113208,City Of Dreams,1
-73.9567852,40.7126384,Lodge,1
-74.09881353,40.70398501,Jollibee Chicken & Burgers,7
-74.02613637,40.75297545,Bin 14,2
-73.87237072,40.77387937,LGA - Central Terminal,1
-73.99344503,40.75847056,Theater Row,1
-73.794907,40.787793,Taste Buds,2
-73.999077,40.724923,Michael Kors,8
-73.98156527,40.76597842,Morton Williams,1
-73.98644352,40.74261301,A Voce,1
-73.92908473,40.85082561,Mendel Gottesman Library,1
-73.92136412,40.868524,Inwood Food Center,3
-73.98904329,40.72652237,Ballarò Caffé Prosciutteria,1
-73.98541242,40.73211864,Finnerty's,4
-73.97213555,40.75149484,Overlook Lounge,1
-74.002115,40.72806729,Bar Carrera,1
-73.9810717,40.76583656,Lee's Art Shop,2
-74.19698238,40.63580843,Goethals Bridge,6
-74.17568017,40.68984041,Porter Lounge EWR,3
-73.99208172,40.7551605,Nepenthes New York,1
-73.97603835,40.76466691,FIKA Espresso Bar,2
-74.01012135,40.70331657,All American Water Street Deli,1
-73.95635605,40.74120936,LIRR - Long Island City Station,6
-73.99866156,40.72474364,The Mercer Kitchen,4
-73.71490139,40.75705579,Towers Restaurant & Caterers,1
-74.0180254,40.70553034,Museum of Jewish Heritage,4
-73.97714605,40.68529806,Hanson's Gourmet Deli,1
-73.9583087,40.80615976,Morningside Park - 116th St Playground,2
-73.97002342,40.76215883,At&t Adworks,1
-73.99587254,40.7260588,Meetup HQ,2
-73.88700485,40.56056905,Fort Tilden Beach,1
-74.0814699,40.7209177,West Side Avenue,1
-73.97756696,40.5748479,Cyclone,2
-74.001646,40.738534,Integral Yoga Institute New York,1
-73.998118,40.740709,Wells Fargo,6
-73.953286,40.74526,Blend LIC,1
-73.98259832,40.77235876,Josh's Lincoln Center House of Musical Theatre,9
-73.98837183,40.72226743,The Sixth Ward,5
-73.99400743,40.74676706,Museum at the Fashion Institute of Technology (FIT),1
-73.82962304,40.66104097,JFK AirTrain - Howard Beach,1
-73.859518,40.825525,Bxny,1
-73.984381,40.81408683,On the Run,1
-73.96537147,40.71800357,Canli's Deutsches Kulturhaus,1
-73.98923993,40.72016447,Shi Eurasian Market,1
-73.98785591,40.75609978,Disney's MARY POPPINS on Broadway,2
-73.99745643,40.62418125,Sky Performance,1
-74.16599751,40.90280945,St. Joseph's Regional Medical Center,2
-73.77533913,40.59274107,MTA Subway - Beach 44th St (A),2
-73.995491,40.744407,Ichiban Sushi,1
-73.99171189,40.70977711,"Under The Manhattan Bridge, Manhattan",1
-74.231164,40.69474,Bethany Assembly of God Church,1
-73.957426,40.608951,Kaplan,1
-73.797001,40.70451,Shopper's World,1
-73.9920677,40.74750739,Reel Creative Studios,1
-73.979498,40.783223,Fish Tag,1
-73.8990084,40.7459958,Red Ribbon,2
-74.24571623,40.74385202,Arts & Sciences Hall,2
-73.96790229,40.8003901,Silver Moon Bakery,3
-74.23335,40.662058,Mi Colombia Restaurant,1
-73.95789,40.76929,Max Tamara's 75th and paws,1
-73.99860368,40.7213,clic gallery,1
-73.98573762,40.75727327,Oakley Store,1
-73.97419027,40.75983523,Europa Cafe - Madison Ave,2
-73.970707,40.75172062,Keats,3
-73.97712596,40.73944139,The Pierpont,6
-73.95495081,40.87244795,Bauer Publishing,1
-73.94186034,40.71466015,The Last Casa,1
-73.9065883,40.6799714,Granite Penthouse,2
-73.98772906,40.76880895,442 W 57th Street,1
-73.99337042,40.75459589,Auntie Anne's,5
-74.00060122,40.72990646,Off The Wagon Bar & Grill,15
-73.97014395,40.67228158,Prospect Park Loop,8
-73.99320973,40.73394596,Num Pang Sandwich Shop,6
-74.004024,40.749329,McKenzie Fine Art,2
-74.00748968,40.70538394,95 Wall Luxury Apartments,1
-73.95236492,40.6946472,Majestic Laundromat,1
-74.0082,40.710441,Samsun Bodywork,3
-73.95383725,40.74318571,Tuk Tuk,1
-74.046457,40.715696,Liberty Harbor - Sutton Building,1
-74.04790454,40.8619815,Park Ave BMW Service Center,5
-73.976135,40.786314,Le Pain Quotidien,20
-74.03434132,40.74223957,Midtown Hoboken Parking,2
-73.91603557,40.75760221,Professional Eyebrows,1
-73.976988,40.74978165,Trevi Nails,1
-74.00897563,40.71842432,Zutto Japanese American Pub,1
-73.70641708,40.72465693,LIRR - Floral Park Station,3
-74.00032282,40.72904747,206 LOUNGE,1
-73.98180485,40.7522637,BCBGMAXAZRIA,1
-73.95138,40.725548,Carmine's Original Pizza,1
-74.00168581,40.7394915,Norwood,1
-74.00229,40.73031508,Greenwich Village Bistro,1
-73.86609279,40.77104649,US Airways Baggage Claim,1
-73.87597561,40.84508004,Wild Asia Monorail,2
-73.98194406,40.77263239,Empire Hotel ,2
-74.109786,40.569567,TSMMA Staten Island,1
-73.96404847,40.6635938,Prospect Park Carousel,3
-73.99221117,40.74966742,Penn Station Track 9,1
-73.97995255,40.76523438,Lili's 57,3
-73.94890078,40.71842657,New York Distilling Company,2
-73.992422,40.74111,Danceteria,1
-73.84368181,40.6765535,Ozone Park,1
-73.95275116,40.8163751,West Harlem Ski Area,1
-73.96706343,40.76092707,CB2,2
-74.17513847,40.74091672,Rutgers University - Newark,4
-73.89704297,40.71544912,Fresh Pond Crematory,1
-73.9352417,40.7123619,House of Yes,3
-74.001397,40.73364718,Corrado's,1
-73.99945349,40.71728732,San Sai Gai Restaurant,1
-73.95355599,40.6792169,Bolla Market (Mobil),1
-73.84389639,40.85719319,Pelham & Eastchester SCEMS post,1
-73.95939925,40.81400029,Bettolona,1
-73.92601914,40.69369451,Brooklyn Public Library - DeKalb Branch,1
-74.188872,40.69671997,The Parking Spot 2,1
-74.07446016,40.643219,MTA s44 Bus,4
-74.1204604,40.66103742,Big Apple,3
-74.17977333,40.60522108,CollegeBound Network,3
-73.98317798,40.75952864,Sam Ash Music,1
-74.03282659,40.61907782,Dish Japanese Restaurant,1
-73.9902829,40.69375167,Surrogate court,1
-73.909786,40.775212,Marathon bank of ny,4
-73.84401699,40.84809056,Calvary Hospital,1
-73.95038825,40.72410822,Keg & Lantern,1
-73.77651087,40.6469056,Official Jetblue Terminal-JFK Int'l Airport,7
-73.99342207,40.75628267,R/GA 353,6
-73.9935933,40.746443,Rosa's Pizza,2
-73.97712596,40.89734453,Batcave,2
-74.0048707,40.71666911,Broadway,1
-73.78200321,40.66153109,FedEx - Hangar 6,1
-73.97029892,40.76144078,BLT Steak,1
-73.990991,40.734311,Pivotal Labs,24
-73.96391646,40.77877877,The Great Hall at The Metropolitan Museum of Art,1
-74.005406,40.622288,Krispy Pizzeria,5
-74.16985989,40.75671852,El Merengue Restaurant,2
-74.05938719,40.87942837,Home ☺,1
-73.997657,40.724238,Armani Exchange,5
-73.8315595,40.71552213,Forest Hills South Apartments,1
-74.00586963,40.73575874,Frankies 570,3
-74.23491955,40.67552826,Kean University Sozio Hall,1
-73.98347855,40.75710752,Cranberry Cafe,2
-74.00691032,40.79396102,"Guttenberg, NJ",3
-73.99979781,40.6419525,Annies X  Slumzzz,1
-73.96039009,40.71859102,Academy Records Annex,1
-74.236995,40.662464,Central Perk Deli,1
-74.02823925,40.73416939,NJT - Hoboken Light Rail Station,2
-74.01241093,40.70698091,Ramirez & Co.,4
-73.84603143,40.72358251,Hyde Park,1
-73.98533588,40.75879719,The Ride,1
-73.99346224,40.61590773,Saint Rosalia Feast,2
-73.978069,40.75835095,Alfredo Of Rome,1
-73.984416,40.745723,The Roger New York,1
-73.84569976,40.78975208,Ralph's  Deli,6
-73.95184546,40.74944659,Wyndham Garden Long Island City Manhattan View,1
-74.21484586,40.66623554,GameStop,4
-73.98982658,40.66503528,Black Horse Pub,1
-73.9889859,40.758566,Smith's Bar,1
-73.97777081,40.69023812,The Brooklyn Hospital Center,2
-73.94578385,40.75080905,Five Star Banquet,1
-73.8797307,40.84941393,Bug Carousel,1
-74.02413672,40.75598879,"Erin, Meg, & Lauren's Apt",1
-73.99570654,40.74416,Chelsea Papaya,2
-74.08059597,40.76216227,Field Station: Dinosaurs,1
-73.93208742,40.8687831,La Marina NYC,9
-73.98610492,40.75757624,Best Buy Theater,12
-74.23517704,40.68096347,Kean University Science Building,4
-73.96633286,40.80328963,My Block,1
-74.05918121,40.91455036,Bobby's Burger Palace,3
-73.99391297,40.7410834,Limelight Shops,8
-73.820041,40.713567,Dominos,1
-73.989731,40.762282,Traffic Bar & Restaurant,3
-74.08596127,40.70884107,NJCU 2040 Apartments,1
-73.98277044,40.76355998,Steak 'n Shake Signature,4
-73.89195576,40.82511929,Urban Health,1
-73.82972154,40.70897878,Kew Gardens Cinema,1
-73.95858419,40.71775897,Surf Bar,2
-73.98852678,40.74996008,Fashions Night Out NYC,68
-73.90493764,40.87924061,231st broadway,1
-73.96763576,40.80795488,Riverside Park North,1
-73.937524,40.670013,1170 Lincoln,2
-74.00664963,40.78710335,El Punto Del Sabor,1
-73.9711833,40.76411256,Calvin Klein Collection,4
-73.99628573,40.79637729,River View Diner,1
-73.9796859,40.76258078,Hilton Club New York,2
-74.08585973,40.874344,St Joe's Feast,2
-73.960142,40.717789,nV Williamsburg,1
-73.94026164,40.84126802,Jou Jou Cafe,1
-73.95006603,40.67541458,US American Deli Corp.,2
-73.97137794,40.68986107,Dick & Janes,1
-73.98738384,40.69147465,MTA Subway - Jay St-MetroTech (A/C/F/R),4
-73.994396,40.725823,Vital Theater,2
-73.98088217,40.72902308,Double Wide Bar & Southern Grill,1
-73.97646307,40.7882349,Tasti D-Lite,5
-74.00289091,40.74016809,Rocky's Pizza Restaurant,3
-73.83248996,40.76104281,Szechuan Gourmet,3
-73.84201259,40.70101966,Park Lane South & Myrtle Ave,2
-74.00724069,40.74219178,450 West 15th Street,1
-73.84248929,40.7193032,5 Burro Cafe,2
-73.999964,40.744878,Colonial House Inn,1
-73.98685673,40.71881951,Back Room,1
-73.9855923,40.616882,Lucky Star Chinese Restaurant,2
-74.00364266,40.72270314,Novecento,1
-74.164449,40.58975637,Tanning Loft,2
-73.847283,40.748573,Court 7 - USTA Billie Jean King National Tennis Center,1
-73.991765,40.759534,Chipotle Mexican Grill,74
-73.86579992,40.73663687,Q72 Bus Stop,1
-73.84655549,40.74857126,Court 10 - USTA Billie Jean King National Tennis Center,1
-73.7165451,40.67017397,Universal Martial Arts Center,1
-73.771445,40.676234,Rochdale Village Festival,1
-73.949002,40.711125,Manna,1
-74.049207,40.88758335,universal cuts,1
-73.9849571,40.74043092,The People's Improv Theater (PIT),1
-74.006375,40.743736,1 Oak,13
-73.958467,40.729813,Paulie Gee’s,5
-73.8013171,40.85387062,Rodman's Neck,1
-74.0032008,40.72396027,60 Thompson,6
-73.93085861,40.6593636,AutoZone,2
-73.924428,40.708413,1896 stage & studios,1
-73.83060606,40.70960224,Odradeks Coffee House,1
-73.99330097,40.75739368,Frames Leisure Time Bowl,5
-74.0332067,40.71624907,Exchange Place PATH Station,2
-73.98150214,40.77093955,Kiels,1
-73.93743,40.708247,The Do-Over,3
-73.96618903,40.80486852,Morningside Heights,3
-74.0113306,40.70387114,Bombay's Indian Restaurant,1
-74.2063622,40.82998794,Sunrise Bagels,1
-73.9848825,40.76006217,Hershey's Store,7
-74.00354,40.73299125,Betel,1
-73.92359075,40.68650693,Alanad Deil & Grocery,2
-74.00629958,40.73935874,Theory,1
-74.04407779,40.72750496,GP's,1
-73.9968596,40.72504971,Flavorpill HQ,2
-73.73013314,40.65466179,Casa de la Edhunwillgard,1
-73.993954,40.690196,Mitoushi Sushi,6
-74.1439437,40.79800824,Belleville Elementary School 9,1
-73.99755478,40.72973041,Skirball Center for the Performing Arts,1
-73.992796,40.73486,Parsons East,1
-73.9910634,40.71461404,Clandestino,2
-73.98598909,40.76763918,Farmer's Market - Ninth Ave,1
-73.91495623,40.77296035,PS 85,1
-73.95161586,40.76879264,Lycee Francais de New York,1
-73.99699159,40.76712432,Pier 90,1
-73.99935,40.758771,NJ Transit Bus 111,1
-74.02943015,40.74247745,Stacks Pancake House & Cafe,3
-73.93071413,40.76211352,Queensview Playground,2
-74.16336466,40.54187595,The Richmond Diner,1
-73.71836391,40.6727378,My Place,2
-73.924453,40.761606,Bungalo Lounge,1
-73.98158823,40.76185906,CNBC Shuttle,4
-73.97714853,40.76269861,Benoit Bistro,1
-73.98172023,40.72220556,Nuyorican Poets Cafe,1
-73.91176986,40.77564396,Soho Cafe & Grill,1
-74.04763776,40.86790523,Penguin House,1
-73.89003224,40.66350846,Dominican Hair Salon,1
-73.97145,40.852723,Akane Salon,1
-73.996697,40.720415,Wild Ginger Vegetarian Kitchen,1
-73.96208548,40.66130655,Prospect park BQ stop,1
-74.032217,40.742611,Hoboken Library,1
-73.96381888,40.6221665,J Midwood Laundry,1
-74.00048375,40.72717746,Jane Restaurant,6
-73.99320973,40.73766583,DryBar,1
-73.99524701,40.72888974,Dojo West,2
-73.996205,40.722185,Ruby's Cafe,2
-73.9767349,40.7642384,Nola Recording Studio,1
-73.98694856,40.73652166,Pete's Tavern,7
-73.91194671,40.67833797,MTA Subway - Rockaway Ave (A/C),2
-74.09454793,40.70035233,Danforth Ave. & Kennedy Blvd.,1
-73.9590319,40.71670589,Fabiane's Cafe & Pastry Shop,1
-73.980716,40.755839,Milk & Honey,1
-73.98802749,40.74842881,Radisson Hotel Martinique,1
-73.994703,40.72478,Milano's Bar,2
-73.77545983,40.79083381,FDNY EMS Training Academy,1
-73.9871609,40.74789774,The Spot,1
-73.99405908,40.7493004,Image Anime,1
-73.980866,40.729765,Destination,4
-73.98285659,40.7449234,Hair & Spa Party 24 Hours,1
-73.99431159,40.74446204,Paws In Chelsea,1
-73.876051,40.756359,33-45 The Coverley,1
-73.78871596,40.72688087,Iguanas Mexican Cuisine,1
-73.84424424,40.68461495,Bella Rosa Deli,1
-73.852458,40.6940127,RadioShack,4
-73.988848,40.723229,Bluebird Coffee Shop,2
-73.96581055,40.7678676,The Children's Learning Center @ Hunter College,5
-73.998188,40.716179,Big Wong Restaurant 大旺,5
-73.95361626,40.65698881,House,1
-73.74040479,40.72659055,Queens Village,8
-73.98904367,40.72035635,Corner Grocers,1
-73.99392135,40.72318764,Le Labo,1
-74.00748744,40.74254167,The High Line,1
-74.18714941,40.68984357,Avis Car Rental,3
-74.10870904,40.6763665,Horace Mann School #6,3
-73.81838323,40.76019914,Daniel Carter Beard Jhs189,1
-73.95092131,40.82537481,Tania Unisex,1
-73.9218092,40.70759615,The Bodega,2
-73.85679245,40.78528571,MTA - Q65 Bus Stop,1
-73.984593,40.663315,Bar 4,1
-73.77658367,40.64603366,JetBlue Lounge,1
-74.01034515,40.70875005,Roundarch Isobar NY,1
-73.9413649,40.81478807,Jumbo's Restaurant,1
-73.7253376,40.68352535,Elmont Rd Corner Store,1
-73.9542448,40.77009696,Rainbow Ace Hardware,1
-73.94442396,40.714022,ba'sik,1
-73.92677693,40.70251201,Tandem,1
-73.89021598,40.83321566,Bronx Family Center,2
-73.9859557,40.75982914,Rum House,3
-73.99547656,40.76294743,Office of the Global CMO (O&M),1
-73.959495,40.653243,Spiritual Reader,1
-73.95526651,40.87227195,"Englewood Cliffs, NJ",1
-73.98238024,40.75636897,MMC,3
-73.98751098,40.76036454,Carve,1
-73.98763664,40.76271588,Blockheads Burritos,21
-73.81429346,40.70232198,McDonald's,90
-73.98034282,40.82902383,Kaname,1
-73.98824557,40.74800709,Korea Way,2
-73.98099709,40.76175195,Flatotel,1
-73.99500024,40.75952976,The Pershing Square Signature Center,2
-73.98974918,40.7632942,Hell's Kitchen Apartment,1
-74.00801539,40.73771386,Barbuto,2
-73.936573,40.74812,Moving target Taxi 9V86,1
-73.99024273,40.74935195,Starbucks - Penn Station (8th Avenue),1
-74.02918315,40.73621204,Oddfellows Restaurant,1
-73.958164,40.732722,Franklin Corner Cafe,1
-73.89420655,40.8659283,MTA Bus - Jerome Ave & Kingsbridge Rd - Bx28,1
-74.00264989,40.75018145,Paul Kasmin Gallery,1
-74.142571,40.833087,St Clare School,1
-73.98507189,40.7594399,Times Squaree❤,2
-73.998576,40.723401,GUESS SoHo,1
-73.962593,40.625037,Blue ribbon fruit store,1
-73.986898,40.763547,St. Paul's House,1
-73.99894275,40.72781303,Le Souk Harem,14
-73.99176928,40.69073155,Starbucks (Inside Barnes & Noble),1
-73.99174059,40.73021667,Kris Sorbie HQ,1
-73.966591,40.695728,Washington Hall Park,1
-73.92646119,40.81850063,MTA Subway - 149th St/Grand Concourse (2/4/5),1
-74.0662837,40.73919337,Construction Chaos,1
-73.947794,40.711369,Noorman's Kil,3
-74.00600118,40.72029343,Art Institute of New York City,1
-73.7986976,40.7097954,Jamaica Hills,1
-74.15574074,40.73929092,PATH - Harrison Station,3
-74.00489366,40.72990966,Spunto,2
-73.9778979,40.71595627,64 Baruch DR,2
-73.819376,40.763821,"Voelker Orth Museum, Bird Sanctuary and Victorian Garden",2
-73.86030417,40.70328449,Dr. Tung,1
-73.99287701,40.74296517,23rd Street PATH Station,2
-73.978662,40.758838,Morrell Wine Bar & Cafe,1
-73.95361626,40.68666823,Casa De Camera,1
-74.17739153,40.69664827,United Club - Terminal C3,5
-73.83444277,40.67892041,My Mother's Place - Fine Italian Ices,1
-73.96273981,40.75428137,A Nice View Of The East River,1
-73.96747112,40.76204851,Forty Carrots,1
-73.98133278,40.77878661,Utopia Diner,1
-73.9630268,40.71231522,Rabbithole,1
-73.990569,40.761091,Riposo 46,1
-73.98286233,40.74939033,The Ginger Man,7
-74.12769781,40.79661775,Body Shop Fitness,1
-73.99424272,40.73888687,J'adore Nightclub,1
-73.88186134,40.73518843,Ace Wine And Spirits,3
-74.0018178,40.60828585,MTA B8 (18th Avenue/86th Street),1
-74.01552679,40.71515623,North End Grill,2
-73.82490829,40.86680931,AMC Bay Plaza Cinema 13,3
-73.99011031,40.66439708,Park Slope Hardware,1
-73.95068596,40.77932014,Rathbone's,1
-74.00621997,40.74774003,Friedrich Petzel Gallery,1
-73.99188995,40.75957806,Reunion Surf Bar,1
-73.98908346,40.76321382,Housing Works Thrift Shop,2
-74.00761368,40.72300104,Horizon Media Inc,2
-73.84676799,40.75591024,Lotito Brick at Citi Field Fan Walk,1
-74.028635,40.744852,NJT 7th Street Bus Station,1
-74.11735296,40.81011453,NJT - Kingsland Station (MBPJ),1
-73.96168,40.682481,The Fulton Grand,2
-74.002822,40.734088,The Windsor,4
-73.86361772,40.77111964,Gate C23,1
-73.945109,40.840949,Riverside Drive Dog Park At 165th.,1
-73.90108109,40.60287514,Mill Basin Drawbridge,1
-73.98868174,40.74033689,Almond,4
-73.94336718,40.79455516,Mirada NYC,2
-73.97829202,40.74808972,Carlton Regency Roof Deck,1
-74.08528442,40.87808726,primerica,1
-74.027756,40.6311,Salty Dog,2
-73.985876,40.749886,Madangsui,2
-73.97876453,40.6380242,"MTA B67, B69 (McDonald Ave/Cortelyou Road)",1
-74.19506,40.74855,All Star Barber Shop,1
-74.00050998,40.7225,Paige Denim,1
-74.00135482,40.6257914,Emporium Gas,1
-74.10831928,40.69928373,Dog Run,2
-73.98200145,40.74290644,Whiskey Rebel,1
-73.98327554,40.77320337,Lincoln Center Theater,2
-73.8028,40.70185,N4 terminal H,1
-73.956584,40.805443,The Orange Peel,1
-73.97294482,40.74818166,Churchill Gym,1
-73.94139824,40.71342199,Matt Torrey's,1
-73.94349921,40.71824185,Frost Restaurant,1
-73.98608196,40.73072654,Viva Herbal Pizzeria,1
-73.82790079,40.70035608,Maracas,1
-73.843229,40.8403127,Ljubo's Pizza,2
-73.987225,40.745044,DKNY Sample Sale,1
-74.02274609,40.75941553,Ruth's Chris Steak House,1
-73.8544,40.84895627,captain's pizza,1
-74.007409,40.72572,Parlor,1
-73.79437208,40.71063781,MTA Subway - 169th St (F),6
-74.00802685,40.73413744,Hudson Urban Bicycles,1
-73.99170041,40.74667608,Hotel Indigo,2
-73.98302,40.730595,Kumo Sushi,8
-73.92008877,40.86824199,Church of the Good Shepherd,1
-73.9065883,40.84786342,Abuela's house,2
-73.99669318,40.722104,Gatsby's,2
-73.95948887,40.77384687,Dos Toros Taqueria,1
-74.09434718,40.82638417,Allied Building Products,1
-74.00049218,40.72384308,Burberry,3
-73.993535,40.750924,Amtrak Acela Express 2290,1
-74.25390007,40.71408483,Dental Health Associates,1
-73.97165537,40.75024805,citifari,1
-74.00318596,40.731508,Kesté Pizza & Vino,1
-73.92255165,40.70621215,Hana Food,1
-74.007296,40.741305,Scoop NYC Mens Store,1
-74.22236619,40.76014847,Foot Locker,5
-73.99405908,40.75241045,34th & 8th,1
-73.9932809,40.753947,Teach For America,1
-73.95194878,40.77750367,Heidelberg Restaurant,1
-74.07364368,40.81328955,Hertz Gold Suites,1
-74.01313969,40.71175243,South Pool,2
-74.02777165,40.73925587,W Hotel,3
-74.149596,40.550506,Knights Of Columbus,2
-73.98140458,40.76232111,NFL Fantasy Draft,1
-73.93994018,40.79077613,Franklin Plaza Apts,1
-74.000307,40.723742,Dash NYC,1
-73.99887963,40.74486468,Murray's Bagels Chelsea,4
-73.98940086,40.73930718,General Assembly,13
-74.214458,40.65837087,Trinitas Hospital - Williamson St Campus,1
-73.99350241,40.70251834,Grimaldi's Pizzeria,6
-73.89874825,40.70978791,Fresh Pond Road Festival,1
-73.97850042,40.75588577,SMA,3
-73.83602511,40.86734403,The Billgatess Shattle,2
-73.99120113,40.73753053,Ennju,2
-73.73785345,40.8734506,Execution Rocks Lighthouse,1
-73.91279697,40.7667291,Layali Beirut,1
-74.039548,40.73898783,Raf Deli,1
-73.95642024,40.64081075,Bona Pizza,1
-73.98373467,40.75382506,Bryant Park Hotel,2
-73.97194615,40.65137722,Prospect Park Tennis Center,1
-73.9676415,40.76300142,Sprinkles Cupcakes,4
-74.00239166,40.72416546,The Broken Kilometer,1
-73.8847611,40.85877792,Pugsley Pizza,1
-73.97523484,40.680934,Vinnie's Styles,1
-73.95437658,40.7070431,Moto,2
-73.956656,40.71495,Tattoo Culture,1
-73.867213,40.86076,LMC LUBE OIL CHANGE,1
-74.00608152,40.72025984,Barbarian Group - NYC,4
-73.73700874,40.66770531,Dominican Hair Salon (Rosedale),1
-73.992856,40.703795,Smorgasburg Dumbo,7
-73.79508018,40.72345355,STJ - Taffner Field House,1
-73.84627408,40.78289879,Stevie's Coffee Shop,1
-73.99024847,40.71882567,Los Amantes,1
-74.0759933,40.63849747,Deeptanks Studio,1
-73.921507,40.669406,West Indian Day Parade (Franklin and Bedford Avenue),1
-73.85090877,40.8836803,108 West 39th Street,1
-73.98904903,40.7230383,Macondo,1
-74.161148,40.608296,Greek Festival,1
-73.98716664,40.74483545,Sherri Hill's Showroom,2
-73.994951,40.680326,Smith Canteen,3
-73.925581,40.762073,Modern Barber Shop,1
-73.95555925,40.72269392,The Gutter,1
-73.971846,40.794582,Time Warner Cable Store,2
-73.98569171,40.75727262,"Toys""R""Us",15
-73.71795818,40.66156797,Greenacers,1
-74.12579673,40.81461544,Spa Lady,1
-73.91665399,40.86486518,207th Street Yard,1
-73.98219084,40.63990023,Fiveboro Printing,1
-73.992239,40.698435,Siggy's Good Food,1
-74.00669554,40.73144024,Takashi,2
-73.92442318,40.76131031,Break Bar & Billiards,2
-73.964686,40.782384,Central Park Basketball Courts,1
-73.99370327,40.7033729,Under The Brooklyn Bridge,5
-74.00057253,40.72978926,Off The Wagon,1
-74.042344,40.760287,Summit Pizza,1
-73.985447,40.75648,Casablanca Hotel,1
-73.92271239,40.64374141,Nazareth Regional HS,1
-73.992552,40.69753826,Penny Bridge,1
-73.98068718,40.75677571,Via Brasil,1
-73.98419954,40.7375504,Iris Nails,1
-74.0076828,40.72844582,MSLGROUP Americas,1
-73.98480892,40.688679,City Of New York - HRA,1
-73.93201823,40.60916262,Pizza Emporium,1
-73.97699109,40.76151456,The Quay Brothers Exhibition,2
-74.00063278,40.80204208,Camizzi's Place,2
-74.00717854,40.747141,Eyebeam Art & Technology Center,9
-73.97384405,40.78224746,Bull Moose Dog Run,3
-73.99656773,40.72387636,VandM Office,4
-73.99219,40.702177,Brooklyn Bridge Gardens,1
-74.01238511,40.83331842,Home (:,3
-73.98396424,40.72994921,Asher Levy PS 19,1
-73.71928053,40.625275,Tamburinos,1
-73.933461,40.703066,983 Bushwick's Living Room,5
-73.981396,40.744138,Mishima,1
-73.99958331,40.724711,Louis Vuitton,11
-73.93499187,40.75074349,Madison Who's Who,5
-73.98989439,40.71841212,Top Hops Beer Shop,1
-73.986367,40.6913354,Best Precious Nails,1
-73.97754206,40.75792169,American Girl,3
-74.14971802,40.82757328,Dr. Zazzali,1
-74.022919,40.751835,Luke's Lobster Truck,1
-74.05938719,40.73132217,Penthouse,1
-74.0149128,40.71783083,400 Chambers,1
-73.9093086,40.77516,Watawa,5
-73.991193,40.745044,777 6th Avenue Apartments,4
-74.00138497,40.68713045,Pok Pok Ny,6
-73.986556,40.747785,Pocha 32,2
-74.16687191,40.6278249,VIP Wash & Lube,2
-73.950507,40.783511,Isohama,1
-73.74190168,40.65635876,Leon's Crib!,1
-73.97469534,40.68645044,Greene Grape Annex,3
-73.86696567,40.76748796,LaGuardia Plaza Hotel,1
-73.97666394,40.74796611,El Rio Grande,6
-74.04861021,40.72910206,Homedepot,1
-73.98016491,40.73904532,NYC EMS Hospital 02,1
-74.00362545,40.7223513,Papatzul,1
-73.99742774,40.72498523,Peter & Jenny's Adorable Coffee Cart,4
-73.93582153,40.79984283,mama's resturant,1
-73.994824,40.727989,Le Basket,1
-74.00139115,40.746452,Moonstruck Diner,2
-74.02670442,40.62065012,Lonestar Bar & Grill,1
-73.91464047,40.90307563,Riverdale Yacht Club,3
-73.98194406,40.77092814,Lincoln Plaza Cinemas,4
-73.934148,40.74467397,"LaGuardia Community College, E. Building",4
-74.00022821,40.7266017,Ari SoHo,1
-73.94779292,40.70402823,MTA B46 Bus Stop,7
-73.84478,40.751159,Grandstand - USTA Billie Jean King National Tennis Center,5
-73.96154881,40.80861224,Columbia Business School,7
-73.952341,40.82371595,The Pet Ark,1
-73.985171,40.723817,Paladas,1
-73.992553,40.745203,Law Office Of Stan J Pogroszewski,1
-74.00058,40.595345,Pizza D'Amore At Ceasear Bay,1
-73.98648369,40.75432032,Razorfish NYC,1
-73.98933598,40.70279046,Datalot,3
-73.98643204,40.73293216,The Belfry,1
-73.99588402,40.76449077,The Press Lounge,3
-73.925135,40.700292,Cafeteria Le Mejor,1
-73.98545265,40.7284946,Duo NYC,1
-73.98985379,40.75982818,The Whitby,2
-74.06388769,40.86469957,NJT - Teterboro Station (PVL),1
-73.97662282,40.74497044,Sid's Bikes NYC,1
-73.98380354,40.57898626,Totonno's Pizzeria Napolitano,1
-73.9761761,40.75992259,Salvatore Ferragamo,2
-73.97937289,40.75195053,Dr. Lim - Dentist Office,1
-73.9966321,40.69829138,Brooklyn Heights Promenade,3
-73.997631,40.74158346,Peter McManus Cafe,4
-74.00042332,40.84433819,At&t Direct Store,2
-74.00602414,40.73456179,ContestaRockHair,1
-73.7955036,40.64880319,American Eagle Gate 31D,1
-73.9949486,40.74127131,Kleinfeld,6
-73.71270418,40.79712868,BMW of Bayside Service Center,1
-74.225669,40.783278,Star Tavern Pizzeria,2
-73.98262024,40.77163687,Ed's Chowder House,2
-73.85122,40.831862,Lulu's Coffee Shop,1
-73.97559642,40.7603093,Volunteer Lawyers for the Arts,1
-73.98520589,40.75833468,Disney Store,9
-73.98325259,40.75011459,Reebok Fit Hub,2
-73.950483,40.776394,Ryan's Daughter,1
-73.98921311,40.72610422,Boiler Room,10
-73.985306,40.66613643,Red Horse Cafe,1
-73.8115921,40.69772339,Jamaica To Penn Station,1
-73.99447801,40.72235784,Gawker Media,1
-73.97089362,40.6721595,Green Pirate Juice Truck,1
-74.001756,40.727282,Pepe Rosso To Go,2
-74.16578998,40.58999725,Trader Joe's,33
-73.991733,40.741695,Salon 02,1
-73.97823651,40.75929496,Del Frisco's Grille,1
-73.80864143,40.70374101,Queens County Civil Court,1
-74.23088551,40.67997085,Kean University STEM,1
-74.04763776,40.73954761,The Bat Cave,1
-74.17206243,40.75022027,Pavillion apartments,5
-74.00348783,40.72908812,'ino Café,1
-73.96273373,40.60293692,Council Center for Senior Citizens,1
-74.06443268,40.60272543,E-Z Pass Lane 16,1
-73.79697418,40.70770645,Tang's Wine & Liquor,1
-74.06085868,40.71500025,Lafayette Aquatics Center,1
-73.86850467,40.86630118,Zimms the Store,1
-74.002698,40.707585,Dr Bobby Buka - Dermatologist,1
-73.979903,40.72267056,Nublu,1
-73.78261218,40.7133377,Midland Parkway,1
-73.965036,40.768825,Hunter North Math Center,2
-73.983319,40.730809,The Redhead,2
-74.24559587,40.81290262,The Manor,1
-73.99944201,40.72993419,Triona's,3
-73.9461914,40.80819785,Golden KrustaGolden Krust Caribbean Bakery and Grill,1
-73.99386406,40.74498105,elk studios,1
-74.1619599,40.81475197,Rita's Italian Ice,2
-73.83182945,40.91148545,Bass Line Jazz Club,1
-73.98818818,40.75555439,Equity Point New York Hostel,1
-73.98751259,40.72181106,La Montanara by Forcella,3
-73.993848,40.755104,Amtrak Acela To Ny,2
-73.947856,40.77132145,City University of New York,1
-74.032009,40.737601,Sushi House of Hoboken,2
-74.20247,40.664081,McGees Cafe,1
-73.90683805,40.81738493,St. Mary's,1
-73.97819634,40.75600432,Elle Photo Studio,1
-74.00266137,40.72350756,Cipriani Downtown,3
-73.98150214,40.74656098,Boom Fitness,5
-73.89482953,40.75736154,The Actual Abode,6
-74.16324998,40.62651481,World Of Liquor,1
-73.987365,40.740861,Press,2
-73.976283,40.667601,Two Monkeys and a Panda,3
-73.93343925,40.81410155,Madison Avenue Bridge,1
-73.9836945,40.66439606,De Luxe,1
-73.95377411,40.77033928,Jones Wood Foundry,5
-73.99811268,40.73281984,Sticky's Finger Joint,1
-73.97583748,40.75934238,Austrian Cultural Forum New York,1
-73.96107528,40.60002996,Sahara Restaurant,2
-73.9879988,40.74935406,Lush,3
-73.94709262,40.63212041,The Junction,2
-74.00209899,40.73090789,Wip,2
-74.00489366,40.7085165,55 Fulton Market,7
-73.92480208,40.71643164,MTA - Q59 Bus,1
-73.97884369,40.75060567,FactSet Research Systems,2
-73.98982465,40.68786874,Lunetta,1
-73.99501746,40.75047778,TripperBus Stop,2
-73.97470191,40.89304,Cassie's restaurant,1
-74.01085586,40.70654734,NYSE Euronext,2
-73.951555,40.635756,RHBC Courtyard,3
-73.88410076,40.77370048,Delta Shuttle,1
-73.9729563,40.76108502,Sony PlayStation Lounge,1
-73.98826853,40.75703102,Madame Tussauds New York,7
-73.987576,40.7194387,Boss Tweeds Saloon,1
-74.029861,40.744176,Henchview Cinemas,1
-73.99180371,40.76991959,Lexus of Manhattan,1
-73.99547082,40.72864544,NYU Silver School of Social Work,1
-73.99299166,40.73902552,Pizza Paradise,1
-73.90712512,40.88631578,Riverdale City Grill,1
-73.98606474,40.74345837,Shorty's,4
-73.98054369,40.77094639,West Side YMCA,1
-74.00476456,40.73499862,KARL Pop-up Store,1
-73.977415,40.779301,Pappardella,2
-73.987616,40.687696,Clover's Fine Art Gallery,1
-73.90348434,40.74555516,Tacos y Quesadillas Mexico,2
-73.979923,40.682082,Il Vino Torchio,1
-73.95294181,40.80871965,NYPD 28 pct,1
-73.98010177,40.7604306,Brooks Brothers,1
-73.92587562,40.83013862,Yankee Stadium Gate 8,6
-74.0076828,40.74277009,BlackBerry PlayBook Experience - New York City,1
-74.036207,40.911949,US Post Office (New Bridge Landing Station),1
-73.994267,40.72222,Public Restaurant,2
-73.98116112,40.7597731,1251 Avenue of the Americas,1
-73.78409386,40.91095047,Metro North - New Rochelle Train Station,3
-73.94940017,40.71516526,Settepani,5
-74.18496214,40.75836545,Park Ave Light Rail Station,1
-73.919503,40.7430825,New York Style Eats,2
-73.99182667,40.73664572,Knewton,1
-73.839105,40.657371,Roma View Catering,1
-73.96787682,40.76284594,Diesel Clothing Industry,3
-73.98491693,40.75691821,Millennium Broadway Hotel,4
-74.01071906,40.70224444,TMP Worldwide,2
-73.988185,40.733879,Trader Joe's Wine Shop,3
-74.000784,40.819175,Fair Ridge Deli,1
-73.95720087,40.67209146,Barboncino,1
-73.694878,40.83120875,Landmark on Main St.,1
-74.03830102,40.72691862,Taste of India,1
-73.949211,40.80244,GauxGirl Headquarters,1
-73.969936,40.765628,Nello,1
-74.01644489,40.7172429,Battery Park City Playground,1
-73.9609554,40.769136,Grace's Marketplace,1
-73.92522437,40.762366,Daly's Pub,1
-73.98954832,40.7196341,Lucky Jack's,3
-73.97768554,40.7628855,PizzArte,1
-73.99367523,40.72966385,The Art of Graphics Programming,1
-73.983829,40.7582,Margon,1
-73.95017624,40.80968415,Apollo Theater,4
-73.98970127,40.75596974,MUJI,2
-73.979782,40.764313,Blue Dog Cafe,2
-73.97515297,40.78710534,Devi Nails,1
-73.98942232,40.77111686,John Jay College - Department of Information Technology,2
-74.032893,40.766943,Stilo's Barbershop,2
-74.00928929,40.74956495,Chelsea Piers Great Lawn,2
-73.92896991,40.59794123,Fiddler On The Roof,2
-73.983155,40.672855,'sNice,3
-73.989193,40.744299,"Quadra Media, LLC Offices",3
-73.97224102,40.794169,The Lite Choice,1
-73.9862628,40.734566,Sally Spa,1
-73.97712596,40.60092327,La Casa,1
-74.01334763,40.69495631,Brooklyn-Battery Tunnel,1
-74.147923,40.765378,Ray Hermann's Fighting Tigers Dojo,2
-73.8964688,40.748562,Elmhurst,2
-73.97434524,40.75354579,Baja Fresh,1
-74.001165,40.721432,Antique Garage,1
-74.09546565,40.72021947,Staples Superstore,1
-73.957268,40.712225,Banter,4
-74.01051196,40.73228891,Hudson River Park,6
-73.840841,40.700984,MTA Q37,1
-73.960151,40.71424,Bird,3
-74.01168217,40.7007002,Governor's Island - Colonel's Field,1
-74.01048287,40.72839162,West Side Highway Running,1
-74.21156901,40.817789,Egan & Sons,2
-73.98480789,40.76139764,Da Marino Restaurant,2
-74.0043485,40.7263951,King Pong,1
-73.82791228,40.75521149,East Buffet,1
-73.78956098,40.73972397,Tokyo Hibachi Steak House & Sushi,1
-73.97692221,40.76488253,The Idea Stone NYC Offices,1
-73.95811021,40.72196149,Wythe Hotel,15
-73.99449523,40.74858114,Holiday Inn Express,12
-73.98887973,40.7312265,KerrBarr's Place,2
-73.99462722,40.75036668,Ny pizza supreme,1
-73.992622,40.755522,Jose limon dance foundation,1
-74.00888352,40.707276,Club Quarters Hotel,1
-73.955353,40.714193,Cupcakeland,1
-73.993577,40.745716,Rare View Chelsea,3
-73.9209938,40.59792235,Marine Park,3
-73.73885905,40.66537083,"Rosedale, New York",1
-74.04680014,40.72212005,Port-O Lounge,1
-73.97971151,40.7656821,PJ Carney's Pub,1
-73.999553,40.7298106,SoHo Sushi,2
-73.993472,40.68229137,Bar Great Harry,1
-73.98789206,40.724736,The Edge,1
-74.00514082,40.74107415,Apple Store,139
-74.00670701,40.72423142,Bliss World,1
-73.994038,40.730063,Pizza Mercato,1
-73.963602,40.693884,Bamboo Lounge & Grill,1
-74.00259733,40.72763684,12 Chairs,3
-73.99254403,40.69278292,Kongsuadiputra's Gallery,1
-73.75638,40.747958,Key Food Supermarket,2
-74.152108,40.724225,Krug's Tavern,1
-73.94589865,40.71641495,Superchief Gallery,1
-73.98013047,40.74537261,Cellfish Media,2
-73.84794534,40.74973396,US	Open Player's Lounge,2
-73.98204736,40.73624072,Yo Sushi,1
-73.775346,40.645764,Muji to Go,1
-73.920912,40.743553,Foxy's Diner,2
-74.01328315,40.70976875,Tribute WTC Visitor Center,3
-74.0059894,40.7358076,White Horse Tavern,5
-73.984479,40.663502,Henry's,1
-74.166154,40.581162,Aldo (Staten Island Mall),1
-73.94555424,40.80773608,Corner of 125th Street and Lenox Avenue,4
-74.04382,40.718226,Marco & Pepe,3
-73.97462647,40.76007247,520 Madison Avenue,1
-74.002805,40.653186,Green Fig Cafe,1
-73.989633,40.70285,Whispr Group,1
-73.8477874,40.79012656,In bed sleeping zzzzzzzzzzzzzz,4
-74.00011917,40.73769672,Boom Boom Brow Bar,1
-73.99220543,40.75146495,One Penn Plaza,1
-73.98873568,40.73716106,Haru Gramercy Park,6
-74.0037976,40.74792664,The Drunken Horse,1
-73.9218857,40.7065563,Tortilleria Mexicana Tres Hermanos,1
-74.08800329,40.7104276,New Jersey City University,3
-73.95888805,40.77202688,YogaWorks,2
-73.79418232,40.75362439,Sheehan's Public House,1
-73.988252,40.720172,Iggy's Keltic Lounge,4
-73.78299952,40.6412306,Gate B24,1
-73.882544,40.74984293,Las Margaritas,1
-73.997451,40.604024,Ichi sushi 2,1
-74.12960387,40.63088988,Fresh Haircutters,2
-73.78303731,40.83840985,Lobster Box,1
-73.99042064,40.75344943,Mood Designer Fabrics,2
-73.98689691,40.76139702,Z Deli & Pizza,1
-73.97402002,40.77943802,Caffe Storico,5
-73.77703369,40.7142209,Hillside Pharmacy,1
-73.79406743,40.72160079,Great Lawn,1
-74.23078895,40.89349146,46 Lounge,8
-73.98500741,40.74689526,Ichi Umi,2
-73.95931,40.655315,Haus Of Pleasure,3
-73.9612,40.80625,Warren Hall - Columbia University,2
-73.98580075,40.75577304,SELF Magazine - Conde Nast,1
-73.77603402,40.74398195,Blue Bay Diner,2
-74.003177,40.733301,Bravo Pizzas,1
-73.89876366,40.74081918,BQE Exit 39,1
-73.98363711,40.72366767,In Vino,1
-73.95666706,40.71272417,Full Circle Bar,3
-73.964505,40.69370849,Soco,3
-73.96881811,40.77100141,Overseas Service League Flagpole,1
-74.00813588,40.71507988,The Patriot Saloon,4
-74.18737572,40.6893568,Lot P3,2
-73.99395578,40.74126054,Grimaldi's Pizza,1
-73.979808,40.743718,Teqa,2
-73.986332,40.739258,BLT Prime,1
-73.927716,40.769771,Vesta Trattoria & Wine Bar,1
-74.010122,40.67975,Red Hook Lobster Pound,1
-74.00586,40.70928,Tandoor Palace,1
-73.84550571,40.75824528,McFadden's Saloon,8
-73.84666443,40.7460865,Queens Museum of Art,1
-73.95574867,40.62264651,East Midwood Jewish Center,1
-73.79482269,40.76048824,Star Toyota of Bayside,1
-73.98147345,40.7623303,Sheraton New York Lobby,1
-73.9681925,40.6960113,Body by Brooklyn,1
-73.97758524,40.75924321,Bill's Bar & Burger,2
-74.05611429,40.7682145,Swamps of Jersey,1
-73.9023999,40.74540743,LIRR City Terminal Zone,1
-73.98980083,40.7189509,LES Tenement Museum,1
-74.00892735,40.70767748,William Street Residence,1
-73.79181862,40.64775942,Europan Bakery Cafe,1
-73.98468163,40.75105103,Frankie and Johnnie's Steakhouse,1
-73.99869,40.720608,Next Cleaners,1
-74.009271,40.717287,Scalini Fedeli,1
-73.96078213,40.63130312,On My Motorcycle,3
-74.00548472,40.71978165,Tribeca Tavern,2
-73.76840423,40.75896205,Golden Piggy,1
-73.91610446,40.83210277,"1161 Sherman Ave Bronx, NY 10456",2
-74.03265953,40.90456099,Coach House Diner & Restaurant,2
-73.959086,40.652231,Gino's Pizzeria,1
-74.031357,40.754429,Carpe Diem Pub & Restaurant,1
-73.96537147,40.76741096,B's Dope Duplex,1
-73.931718,40.852161,Robin's Unisex 2,1
-74.03930068,40.72075399,the WAREHOUSE,1
-74.005414,40.73240697,Friends Building,1
-73.921426,40.766901,MTA - 30th Avenue Bus Stop,1
-73.98697615,40.70286259,DUMBO Startup Lab,1
-73.95131163,40.81784837,Aaron Davis Hall,1
-73.96365166,40.80719923,Brad's Cafe at Columbia University School of Journalism,1
-73.98927859,40.73046579,Saint's Alp Teahouse,1
-74.229485,40.70750577,Nj Turnpike,3
-74.00044054,40.74266594,Grand Sichuan Eastern,1
-73.94186034,40.70477381,black lodge,3
-74.00184076,40.73940488,The Darby Downstairs,1
-73.930913,40.656637,Eastern Parkway bound Dollar Van,1
-73.97384673,40.74330251,NYU Medical Center Emergency Department,1
-73.89773217,40.754114,BP Gas Station,4
-73.92240238,40.68149881,Crown Fried Chicken,6
-73.97526354,40.57429719,NY Aquarium,1
-73.86175454,40.74981451,El Negro and Boys Barbershop,1
-74.1237924,40.84216827,Somewhere,1
-73.88697178,40.83433374,CS50,2
-74.13768178,40.83003257,River Front Center,1
-73.9511408,40.7120462,Barcade,13
-74.01084438,40.74666492,Fast Company - Innovation Uncensored Conference 2012,1
-73.90098747,40.72267548,"Maspeth, NY",1
-73.888279,40.854181,Arthur Avenue Retail Market,1
-73.91834636,40.71131121,Jefferson Starrship,1
-73.98798732,40.73234594,Bar None,6
-73.99291523,40.723072,Sperone Westwater,1
-73.732326,40.719636,Rachel Terrace,1
-73.69987828,40.72953004,Quest Diagnostics,1
-74.01370168,40.70483495,Bowling Green,3
-73.98497432,40.76132829,Ambassador Theatre: Chicago the Musical,4
-73.9777085,40.76918072,Unilever Shuttle,1
-74.241564,40.744341,First Presbyterian and Trinity Church,1
-73.92321759,40.70675959,The Cobra Club,2
-73.99185536,40.72929738,Blue Man Group at Astor Place Theatre,1
-73.9958668,40.73638098,eMusic,1
-73.98612,40.767324,Bello,1
-74.08300282,40.71918,Thanh Huong Vietnamese Restaurant,1
-73.999,40.7292,Cuba,2
-73.86652,40.846185,Vanessa & Juliana's Place,1
-74.03064251,40.73802277,Cold Stone Creamery,5
-74.00533552,40.7207847,Pepolino,1
-73.92193794,40.75538459,Beach Bum Tanning - Astoria 1,1
-73.91767178,40.74635428,Flynn's Garden Inn,2
-73.94186034,40.69488579,Eleanor Roosevelt Houses,1
-73.85490417,40.72748642,Tower Diner,1
-73.92971047,40.83114891,Noonan Towers,1
-73.81625794,40.58583278,Queens Library at Peninsula,1
-73.86124023,40.82513949,950 Underhill Avenue,1
-73.99157416,40.74322515,Raymi,1
-74.0041852,40.73272229,Buvette,3
-73.86152737,40.66469874,Department of Sanitation,1
-73.94441766,40.81433876,Yatenga,1
-74.17728549,40.69509901,Newark International Airport Bus To Port Street,9
-73.95933867,40.65186199,"Flatbush, Brooklyn",1
-73.98102579,40.77350199,"ESPN, Inc.",8
-74.00020078,40.73782411,MTA Subway - 14th St (1/2/3),1
-74.0058589,40.74042899,CATCH ROOF,2
-73.99447801,40.75980444,Manhattan Plaza Health Club (MPHC),1
-74.01238511,40.91220464,Chomo Villa,5
-74.04236913,40.84418726,161 Bus Stop,2
-73.93855673,40.84612251,El Malecon Restaurante,1
-74.00143332,40.72604125,M&O Market,1
-73.966733,40.67492687,Blue Marble,2
-74.09795495,40.87053932,Joe's Home Office,1
-73.95108777,40.63163316,Brooklyn College Quad,2
-73.95361626,40.78549052,Casa de Kostovny,4
-73.993589,40.7239845,Jo's,1
-73.92689749,40.75631859,Astoria: Secret Location,1
-73.89747934,40.86748081,Eighth Regiment Kingsbridge Armory,1
-74.0095067,40.7380878,Cafe Gitane @ The Jane Hotel,3
-73.998965,40.739563,Legend Bar & Restaurant,1
-73.90078078,40.74579678,Immigration Center,1
-73.9693594,40.76624155,MTA Bus - M1/M2 - 63rd and Madison Ave,1
-74.00838837,40.71617651,Gotham Bikes,2
-73.933794,40.710768,3rd Ward,2
-73.7848872,40.71330603,Saba Beauty,1
-73.948348,40.774377,Pintaile's Pizza,1
-74.21572566,40.66809073,Willy's Place,1
-73.9065883,40.67008029,4G Home Of The Worlds Greatest Tag Team,2
-73.894294,40.726391,Good Eats Diner,1
-73.97216999,40.76245411,Eastside Dental Medicine,2
-73.98961544,40.75210115,My Daddy's Pizza,1
-74.0725708,40.68948969,Port Liberte,4
-73.99978633,40.67496803,Treats Truck Stop,1
-73.90436,40.745504,Saints and Sinners,1
-74.00128985,40.72271658,Jack Spade,1
-74.027503,40.760587,Fabrications By Design,1
-73.959328,40.717997,Toby's Estate Coffee,6
-73.99259568,40.75507842,Timo Weiland Design Studio,1
-73.83122063,40.7636762,The Marco LaGuardia Hotel & Suites by Lexington,1
-73.81902695,40.67002749,South Ozone Park,3
-73.98841381,40.7430302,Dewey's Flatiron,1
-73.98220232,40.76380757,Flute Bar & Lounge (Midtown),1
-74.14591312,40.78115886,Manor park,1
-73.99476495,40.72397952,Fjallraven Showroom,1
-73.987063,40.721203,Annabelle Hair Salon,1
-73.98690264,40.69410495,Jacobs Academic Building NYU Poly,3
-73.8706983,40.67287551,On The Run - Conduit & Liberty,9
-73.99330156,40.74459577,The City Quilter,1
-73.99834019,40.72400949,Scholastic Inc.,1
-73.99501172,40.75954586,The Terrace at Yotel,3
-73.97501675,40.78759206,The Coffee Bean And Tea Leaf,3
-74.03336175,40.738387,United Synagogue of Hoboken,3
-73.98698299,40.76593465,Valhalla,2
-74.01046565,40.7115209,3 World Trade Center (Under Construction),1
-74.17365521,40.69443366,Gate C75,1
-73.91590926,40.6337176,MTA Bus - B6/B6LTD/B82/B82LTD - Flatlands Av & E 82 St,1
-73.99016239,40.76081794,The House of Brews 46th,2
-74.00482893,40.74196534,Fat Witch Bakery,1
-73.82426211,40.66819887,The Unicorn Palace,1
-73.81194985,40.58573021,Dayton 8800,2
-74.00633975,40.71972053,The Bubble Lounge,2
-73.98818818,40.74900188,Aeropostale,1
-73.99219396,40.68399991,Mandy's Healthy Cafe,1
-73.90364581,40.77747949,CROSSFIT DYNAMIX,3
-73.992517,40.734296,Nanoosh,5
-73.98097987,40.75848997,City Sports,1
-74.16571808,40.62717056,Being pulled over yet again by the Police,1
-73.99583817,40.59114424,Sovereign Mercedes-Benz Dealership,1
-74.00409937,40.70619726,Imagination Playground at Burling Slip,2
-73.82808459,40.84952204,Greek Grecian Festival At The Zoodohos Peghe Greek Orthodox Church,1
-73.87349701,40.77567673,United Flight 1551 LGA-ORD,1
-74.16509908,40.84498742,Styertowne Apartments,1
-73.997911,40.59868276,Johns Barber Shop,1
-73.98186945,40.77949484,The North Face,1
-73.967917,40.75897653,GolinHarris (New York),1
-74.17007293,40.80266573,Brix Tapas Grill,2
-73.97013247,40.75571633,Hill & Knowlton,1
-74.02772575,40.62250187,The Childrens Place,1
-73.998868,40.729369,Quantum Leap,1
-73.99557412,40.7032739,East River Ferry Terminal Brooklyn Bridge Park/Dumbo,2
-74.0039468,40.72996685,Market Table,1
-73.95528316,40.82670252,MTA MaBSTOA Bus M11 and Bx19 at Riverbank State Park,1
-73.9791441,40.66576328,Dizzy's Diner,2
-73.98650665,40.72394678,Social Tees Animal Rescue,1
-74.17524576,40.69728274,United Airlines,4
-73.97134925,40.79547697,Sprint PCS Superstore,1
-74.033445,40.76371577,De Palma Pizzeria & Ristorante,1
-74.06545,40.7395,Tonnele Circle,2
-73.98112335,40.66751944,Okeanos,1
-73.976594,40.674929,Park Slope Food Coop,1
-73.921157,40.867835,Alvin's Crystal 2000 Cleaners,1
-73.83955444,40.82541133,SCEMS Ambulance 011,1
-74.219496,40.81502974,Sharron Miller's Academy For The Performing Arts,1
-73.96854261,40.75955318,MTA M101,1
-73.83236361,40.70612151,MTA Bus - Q10,2
-73.99576924,40.72640905,Atrium NYC,4
-73.98481937,40.6845009,Boerum Hill,1
-73.95394058,40.75642614,Sportspark Pool NY,1
-73.9981049,40.73081456,Washington Square Park Dog Run,2
-73.81249842,40.73569746,Wat Da Fung Castle,1
-73.97991657,40.77316438,ABC News Headquarters,3
-73.87632966,40.76801296,Jubilee,2
-73.942827,40.707407,Duck Duck,1
-73.99325252,40.74127439,BuzzFeed,1
-74.07514572,40.73802277,Pulaski Skyway,1
-73.954455,40.7782,Highlands Cafe,1
-73.88798237,40.74361191,Spicy Shallot,1
-73.99270535,40.74109556,Flywheel,16
-73.831785,40.70637,JB Shuttle Stop - Metro & Lefferts,1
-73.95195723,40.77719424,Midnight Blue,2
-74.14380574,40.87932045,El Mexicano,1
-73.98683952,40.78183084,Riverside Park at 73rd St,1
-74.003533,40.65386,NYFW Tents @ the Studio,1
-73.983715,40.742323,The Caulfield,2
-73.899024,40.819096,Dana & Emily's Abode,2
-73.971923,40.7633,Swarovski,2
-73.8314724,40.75951305,"Flushing, NY",8
-74.14498904,40.78758001,Bagel Bistro,1
-73.99124704,40.75626306,Port Authority Transbridge Gates,1
-73.80073403,40.67471152,In Bed,1
-73.948749,40.812819,Olivias Condo,1
-74.00600692,40.73545756,WXOU Radio Bar,1
-73.9872551,40.7188187,Thierry-Goldberg Gallery,1
-73.9887793,40.71944398,Mehanata Bulgarian Bar,2
-74.00348198,40.72525873,Spa Belles,1
-73.9993,40.728912,Generation Records,1
-73.99250386,40.75346141,Chef Yu,1
-73.86383019,40.83275352,Isla Verde Cafe,1
-73.97312848,40.76393097,Angelo Galasso,1
-73.98000421,40.74556612,Yeshiva University - Beren Campus,3
-74.03030201,40.73681314,Hoboken,5
-74.007101,40.627893,NIA Community Services Network,1
-73.80268428,40.71448956,Tradition's Pub,1
-73.98944502,40.75898512,Ca Va Brasserie,1
-73.97738136,40.68430991,Chuck E. Cheese's,2
-73.99280228,40.70964676,Two Bridges,1
-74.10637474,40.83339352,Washington School,2
-74.048426,40.742019,Salsa Fever On2 Dance Academy,1
-73.987898,40.743854,24 Hour Fitness,22
-73.97645159,40.7517818,New York Central Bar and Kitchen,1
-73.9065883,40.63049908,Murray's House,1
-73.96321177,40.80642775,Butler Library - Columbia University,1
-73.97339823,40.75451688,Snafu,1
-73.82165728,40.66128137,JFK AirTrain: Bombardier Facility,1
-74.00048071,40.74223564,Pounds & Ounces,7
-73.98163414,40.76162534,BNP Paribas,1
-74.01561286,40.71346081,Caravelli's Pizzeria,1
-73.93195508,40.67940811,Boys and Girls High School,2
-73.98433685,40.76078079,Ruby Foo's,2
-73.9365246,40.80444781,New York State DMV,5
-73.986031,40.75162,"Mani Nails, Inc",1
-73.98632874,40.75498882,Cafe Duke,4
-73.94186034,40.8331652,The Mills',1
-73.826018,40.743548,北港台菜,1
-73.98887973,40.72134149,JoannerBed,1
-73.748958,40.76379699,Mizumi,4
-73.95053029,40.82641025,"145th Street / Broadway (Manhattan, NY)",1
-73.98734093,40.69424047,Kings County Family Court,1
-73.845963,40.748806,Xerox Booth - US Open,20
-73.987885,40.72828342,San Loco,5
-73.98553101,40.76153028,The Pearl Hotel New York,1
-73.98217937,40.65615413,Bishop Ford Central Catholic High School,1
-73.9499053,40.81404203,William's Airbnb,1
-74.159795,40.81900477,Magic Nails,1
-73.99343355,40.74755235,The Greek Corner,1
-74.00270728,40.7326842,"One if by Land, Two if by Sea",1
-73.84630854,40.81260304,Bronx YMCA,1
-74.00605202,40.70305779,SeaStreak - Wall Street Ferry Boat,1
-73.81249842,40.7653234,The Throne,2
-73.99656773,40.74274164,Momoya,1
-73.99331877,40.74078734,Boxers NYC Sportsbar,10
-73.7934987,40.75740453,Taco Bell,12
-74.01106238,40.70536767,Incisive Media,1
-73.96537147,40.63886447,Ditmas Park,2
-73.90226784,40.85000862,@ my Penthouse..,1
-73.97639993,40.73327974,Oval Fitness,2
-74.19568254,40.87246273,Six Brothers Diner,2
-73.98798466,40.76486015,El Azteca,3
-73.95553055,40.77578095,King's Carriage House,1
-73.998865,40.719846,Landmark Diner,1
-73.97937863,40.7276907,Mercadito,1
-74.05424403,40.89207273,Premier Health Center,1
-73.84636022,40.72080956,Exo Cafe,1
-74.246772,40.74321,Pirate's Cove,1
-73.99238334,40.71883771,Happy Ending Lounge,3
-73.82349531,40.76085055,School Bus Stop,1
-74.00315,40.733063,Marie's Crisis Cafe,2
-73.98230563,40.74881856,BxM7 To Co-op City,1
-74.00325818,40.70809213,The Blue School,1
-73.950851,40.725879,Brooklyn Public Library - Greenpoint Branch,1
-73.98254093,40.76973731,NYIT - 16 W. 61st St.,1
-73.93214452,40.61770283,Oasis Diner,1
-73.987368,40.719807,La Caverna,1
-73.95352936,40.74407196,Spice LIC,4
-73.89546974,40.84656997,Dr Lounge,1
-74.14558943,40.57103366,Richmond County Fair,1
-73.9188487,40.63152151,Arch Diner,2
-73.98792419,40.75367905,Obamapocalypsa,1
-73.986719,40.75265146,Situation Interactive,1
-73.96920919,40.75930175,90-Second Fitness,1
-73.9886713,40.73135645,AMC Loews Village 7,2
-73.9534694,40.78544428,1199 Park Avenue,2
-73.94859081,40.63905231,Papa John's Pizza,1
-73.9910221,40.75550706,Kashmir's Dollar Burger,1
-73.7089532,40.8442349,John Philip Sousa School,2
-73.94180775,40.83897641,Carrot Top Pastries,1
-73.932782,40.705466,Pine Box Rock Shop,5
-73.99409351,40.74611904,brgr,3
-74.00613785,40.74267254,Manhattan Fruit Exchange,1
-73.978269,40.777867,Arte Around the Corner,1
-74.00128985,40.7052707,South Street Seaport Terrace,2
-73.9399287,40.81547532,Shamlan No2 Deli,1
-74.009104,40.709127,Ann's Nails,1
-73.96258484,40.75819319,Sofrito,3
-73.87563676,40.73534147,Sushi Island,1
-73.99339338,40.73593667,Ronni Kolotin Office,1
-73.80680875,40.58943287,"Rockaway Beach, NY",1
-73.98240319,40.77175056,Fiorello's,1
-73.94015258,40.81435346,Harlem Hospital,2
-73.97404105,40.76217928,Chanel USA Inc,1
-73.95858993,40.86850494,Parkway Toyota,2
-73.985721,40.72715905,South Brooklyn Pizza,3
-73.830904,40.699934,Lefferts Blvd & Jamaica Ave,1
-73.97195763,40.76630085,5th ave,2
-73.70398762,40.72858131,Trinity Restaurant & Bar,1
-73.97949341,40.76373252,New York City Center,1
-73.949311,40.714049,Bagelsmith,5
-73.97335052,40.78911988,Upper West Side,3
-73.7366,40.624105,Laundry palace,3
-73.9938,40.72815835,New Era Flagship Store: New York,1
-73.99295665,40.733891,Ramen Takumi,3
-73.985964,40.753816,Croton Reservoir Tavern,1
-73.98838905,40.76430851,Hummus Kitchen,2
-73.983602,40.672428,Culture: An American Yogurt Company,2
-74.00131281,40.80423694,Bruins Stadium,1
-73.97350073,40.77142562,Central Park,49
-73.97651472,40.74919549,Pod 39 Rooftop Bar,5
-73.83602511,40.70943036,Billy's Hotspot,2
-73.78267765,40.64925721,Terminal 7,9
-73.98424546,40.72908902,Nai Tapas,1
-73.95412426,40.77805922,Jacques Brasserie,1
-74.074425,40.813393,Jets Green Room,1
-73.98935795,40.74130691,Flatiron Building,5
-73.9881767,40.76786859,High School for Environmental Studies,1
-73.97538981,40.75212397,Eli Zabar's,1
-73.696984,40.730192,"Suds ""R"" Us Laundromat",1
-73.977128,40.78597022,Children's Museum of Manhattan (CMOM),1
-73.958659,40.815881,Columbia University - Prentis,1
-73.971191,40.764159,TOD'S,1
-73.954014,40.742631,Dorian's Cafe,1
-73.94999715,40.65070757,Exquisite Delight Jamaican Resturant,1
-73.9162302,40.88590796,seton park,1
-73.95964606,40.77106844,J. G. Melon,1
-74.0303421,40.90579353,Banana Republic,6
-73.98114057,40.76047529,CBS Local Headquarters,1
-74.10477455,40.8638536,Time To Wash Laundry,1
-73.97241105,40.66241196,Gossip Girl Film Set,1
-73.99179,40.716186,Lobster Farm,1
-73.98112909,40.74757474,Franchia,1
-73.98872765,40.73117832,The Smith Restaurant,16
-73.70217919,40.72910032,Buttercooky Bakery,2
-73.98828575,40.72029729,Libation,3
-73.98924415,40.7537908,Ben's Kosher Delicatessen,1
-73.99011074,40.72374682,Cozy Cafe Hookah Lounge,2
-73.997519,40.721544,Lair Lounge,2
-73.93195665,40.7993538,Home@Wagner Houses (122nd & 1st Av),2
-73.92778731,40.75576405,Arepas Cafe,1
-73.84492636,40.75886291,The Bodega Club,1
-73.92459869,40.73321008,"Queens, NY",3
-73.87046099,40.73423443,GUESS Queens Center,1
-73.92336686,40.75792778,Cafe Bar,1
-73.79449254,40.73706461,J.H.S. 216 George J. Ryan,1
-74.00063278,40.61416155,Jedi House,1
-73.80341957,40.8131624,Locust Point Yacht Club,1
-73.95236626,40.81112146,MTA Subway - 125th St (A/B/C/D),1
-73.96061609,40.72970128,WNYC Transmitter Park,2
-73.88249872,40.85899831,Ram Van Office,1
-73.974548,40.68639686,Greenlight Bookstore,2
-73.99237186,40.74108664,Mercedes Benz Fashion Week,4
-73.98911119,40.77832353,Riverside Park South,1
-73.9745576,40.77463133,Statue of Daniel Webster,1
-73.98245931,40.7735625,At 65 Cafe,1
-73.74517985,40.6567216,Market Fresh,1
-73.999217,40.902665,US Gas,2
-73.9548111,40.76466513,New York-Presbyterian/Weill Cornell Medical Center,1
-73.90595962,40.83060972,My Apartment,2
-73.72852,40.787051,Laverne of Great Neck,2
-73.98860139,40.74499789,NoMad Restaurant,3
-73.7654367,40.60038317,Adjunct 4A-Unimatrix 433,1
-73.96905343,40.74938928,United Nations Secretariat Building,1
-74.11122,40.844795,Gaetas Appartment,2
-73.91323387,40.74768873,Sunnyside Super Deli,1
-73.92170773,40.67695433,Papa's Fried Chicken & Ice Cream,1
-74.174999,40.74578576,Pi Kappa Phi,4
-73.98141031,40.75515687,General Society of Mechanics & Tradesmen,1
-74.21972953,40.81445458,South Park Bar & Grill,1
-73.9667002,40.76419397,Korean Express,4
-73.919528,40.766128,Tacos Mexicanas Truck,1
-73.97662377,40.78798118,Mama's Famous Pizza & Burgers,1
-74.016691,40.712215,Manhattan Sailing Club Boat 4,1
-73.919175,40.864706,Euro Lounge,1
-74.0358876,40.73788614,DDub's,1
-73.93010371,40.74263506,The Greenwich,1
-74.17684116,40.72806869,the house of to many kids,1
-73.946992,40.680202,Brooklyn Community Board 3,1
-73.98984674,40.74234463,Le Cucine @ Eataly,1
-73.9832087,40.67921588,Union Hotel Brooklyn,1
-74.196343,40.799544,Bloomfield Board of Education,1
-73.98516815,40.72793,Scarab Lounge,1
-73.988202,40.758339,Phantom Of The Opera,5
-74.2163862,40.7627905,City Of East Orange Economic Center,2
-73.99183241,40.72929738,Joe's Pub,9
-73.98515223,40.71878275,Yunnan Kitchen,1
-74.01057468,40.7103073,OMD,1
-73.99451819,40.73019001,Apple Restaurant & Bombar,2
-74.00200144,40.7302962,Bagels on the Square,1
-73.99399281,40.75232872,Manhattan Center,1
-73.92818917,40.69285985,Trade Wise Supermarket,2
-73.987272,40.748069,Muk Eun Ji,2
-73.94899836,40.80271011,Victor's Barbershop,1
-73.816575,40.711961,There is no place like Home!!!!,1
-73.80073403,40.69448377,164th Pl and 107th St,1
-74.0112518,40.63348178,Fei Long Shopping Center Food Court,1
-74.07096148,40.85446166,Sonic Drive-In,11
-74.02575193,40.84698425,The Treadmill,1
-73.83064052,40.70594874,New China Fresh,1
-73.93138115,40.66044567,Dacta Bird,1
-74.01645637,40.715153,Battery Park City,3
-74.08452725,40.59734619,Brooklyn's Finest Pizza,1
-73.97365077,40.75721783,Waldorf Astoria - The Towers,1
-73.993226,40.66853,Lowlands,1
-74.03515606,40.63672575,Xaverian High School,1
-73.94876876,40.80938313,Champs Sports,1
-73.979165,40.745318,Le Parisien,1
-74.21588337,40.71871449,Atmosphere,1
-73.74190168,40.72554094,Yo Olde Homestead,6
-73.97171083,40.76450242,660 Madison Avenue,3
-73.946642,40.772033,55 East End Ave,1
-73.98346494,40.74019488,Baruch College - William and Anita Newman Vertical Campus,7
-73.88661003,40.75545212,Leños,1
-73.99236202,40.73470595,Qdoba Mexican Grill,3
-73.98259,40.7445,555 Club,1
-74.005901,40.722954,Palenque Homemade Colombian Food Truck,1
-74.22067165,40.89726261,Uncorked Wine Shop & Lounge,1
-73.69131088,40.75362911,Iavarone Brothers,1
-73.91115546,40.84344868,Bronx Lebanon Hospital,1
-73.922895,40.743979,Ariyoshi Japanese Restaurant,1
-73.817162,40.699528,Jamaica Van Wyck,2
-73.935327,40.697181,Loma Restaurant,1
-73.98006678,40.677119,Lobo Park Slope,5
-74.18608189,40.70413141,Wyndham Garden Hotel,2
-74.008632,40.73879,91 Horatio,2
-74.00066904,40.731534,Galanga,1
-74.06219535,40.88541663,Lakeshore Learning Store,1
-73.82558908,40.863251,Breast Cancer Walk,1
-73.99066167,40.74595491,Shefinds Media,1
-73.8607119,40.83226911,"G.I.V.E,Inc.",1
-73.96746357,40.76693071,Daniel,1
-73.996485,40.71540177,Focus Beauty Hair Salon,1
-73.94767238,40.63247109,MTA Bus - B44/B44 LTD - Flatbush Ave & Nostrand Ave,1
-73.89198303,40.68779755,Jackie Robinson Parkway,1
-73.96350098,40.76860046,Alberto's Breakfast Cart,1
-73.99520684,40.7235674,Nolita,1
-73.97707717,40.76304258,Benihana,1
-73.97328918,40.67797773,Royal Video,1
-73.96872054,40.78981499,PS 84 THE LILLIAN WEBER SCHOOL,1
-73.988321,40.764217,Empanada Mama,5
-74.00589215,40.74051218,SoHo House,18
-74.16432791,40.57862906,Bonefish Grill,2
-73.79289551,40.78801262,Little Bay Park Dog Run,11
-74.00185797,40.72702121,Local,1
-73.96553505,40.80595721,Deluxe,1
-73.984462,40.761653,Emmett O'Lunney's Irish Pub,3
-73.79287253,40.65031877,American Airlines Gate 42,2
-73.94184025,40.79815456,German Barber Shop,1
-73.99153972,40.76486773,123 Burger Shot Beer,3
-74.04379606,40.72041248,Two Boots,5
-73.97763389,40.67157776,Sweet Melissa Patisserie,1
-73.997361,40.737604,Good Stuff Diner,4
-73.93841743,40.84884583,Port Authority - GWB Bus Terminal,1
-73.97354364,40.65485736,Uncle Louis G's,1
-73.9982984,40.73019,Judson Memorial Church,1
-73.98737324,40.71895415,Lisa Cooley,1
-73.95287293,40.74155801,Midtown Tunnel,2
-73.99282029,40.661834,El Continental,2
-74.00063278,40.73289347,47 W 13th St,1
-73.93701254,40.79983853,The Casita 119th Street Between 2nd & 3rd Ave.,1
-73.92803192,40.76303991,Los Portales,1
-73.98557067,40.7585541,Evita on Broadway,6
-74.08226967,40.81134071,Meadowlands Parking Lot,8
-73.985945,40.72111,Angel Orensanz Foundation,2
-74.007353,40.729801,Equinox Rooftop Pool,1
-73.982761,40.76376,Ed Sullivan Theatre,2
-73.8960841,40.86914041,Shalon Restaurant,1
-73.80870437,40.65684873,JFK International Airport NYC,1
-73.98488823,40.75855147,Actors Equity,1
-74.00318358,40.73349681,"West Village, NY",9
-73.997635,40.737694,McBurney YMCA,3
-74.157952,40.817151,Radiant,1
-74.05598234,40.88472551,HackensackUMC Women & Children's,1
-73.98887973,40.68178466,Kilted Olive,2
-73.91834636,40.83967852,Walton StandUp!,1
-73.82679799,40.85304694,NYCT - Pelham Bay Park CRC,2
-73.9444234,40.72532598,Monsignor Mcgolrick Farmers Market,1
-73.98779154,40.74797223,The Music Story,1
-73.95009041,40.81965536,The City College of New York,7
-74.00069304,40.72609793,Billionaire Boys Club/Ice Cream,2
-73.985316,40.765229,American Theatre of Actors Chernuchin Theatre,3
-73.98037726,40.74270079,Noodles 28,1
-73.90325538,40.67564171,East New York Tunnel,1
-73.99458705,40.75217704,The Olivia,1
-73.97765111,40.75949167,The Lambs,1
-74.13810253,40.82530613,The Shannon Rose Irish Pub,7
-74.00223255,40.70533514,Pier 17,7
-73.96963887,40.79768749,Sura Thai Kitchen,1
-74.09076228,40.91713632,Saddle River County Park - Rochelle Park Area,1
-74.02877569,40.73587661,Teak,3
-73.91540978,40.84327376,Castillo Auto Repairs Corp,1
-73.90863419,40.66424958,NYCHA - Tilden Houses,1
-74.07841823,40.84576502,The Fiesta,2
-73.97086143,40.75557964,Dos Caminos Third Avenue,2
-73.935067,40.683372,B15 Bus Stop,2
-73.98661137,40.74954093,Uniqlo,21
-73.83057117,40.75983811,Pho 32 & Shabu,5
-73.991733,40.726057,Bowery Hotel Lobby Bar,1
-73.9330101,40.75292051,zante deli and restaurant,3
-73.97416732,40.72156346,East River Park Track,2
-73.96217732,40.76954981,The Land Of Bunnies,2
-73.96396812,40.71948103,Northside Piers,1
-73.989524,40.740226,Stuzzi Ristorante,1
-73.81897486,40.75144575,Parents House,1
-73.98738384,40.72901495,Sly Fox,2
-73.99679303,40.72634407,Red Car Editorial,2
-73.87236361,40.7738988,MTA Bus - M60 (LaGuardia Airport) - LGA stop,1
-74.14553209,40.82843074,Cozy Formal Wear & Embroidery,2
-73.98806763,40.75950241,50th And 8th Ave,1
-73.93245452,40.58469545,JAO's Lair,1
-73.97095799,40.77406421,Bethesda Fountain,8
-74.15335627,40.80384465,Samsons Dorm,2
-73.93822182,40.847502,Pick and Eat,2
-73.95584,40.776336,Dylan Murphy's,4
-73.98607622,40.73837189,RoKo - Tango Milonga @ Manhattan Ballroom,1
-73.95333052,40.77537433,Bistro Nora,1
-73.986387,40.735362,140 E 17th St,1
-73.82426211,40.73738539,SİNGLE HOUSE,3
-73.98270607,40.77114936,David Rubenstein Atrium at Lincoln Center,3
-73.99426103,40.69480989,Brooklyn Heights,7
-73.9333863,40.705397,Swallow Café,3
-73.97999273,40.74936105,Scandinavia House,1
-73.97139516,40.75202014,The Amish Market,1
-73.98298826,40.72826,ThirsTea,1
-73.95222,40.86975,Allison Park,1
-74.01339054,40.69977177,Staten Island Ferry Boat - Guy V. Molinari,2
-73.94963552,40.82833857,Mi Tierra I Restaurant Bar & Lounge,1
-73.989387,40.72939,Boka,2
-73.98925602,40.73008408,Angel's Share,2
-74.11800474,40.89219381,Parkway Lanes,1
-74.00256956,40.76293631,Circle line sightseeing cruise,1
-73.870937,40.775374,"LGA - Terminal B, Concourse B",1
-73.98787254,40.73823978,Barbounia,4
-73.97681057,40.65072648,Greenwood Playground,1
-73.99465018,40.75031444,New Jersey Transit,1
-73.98887973,40.82998414,The Shitter @ Home,1
-73.94302276,40.70045536,Woodhull Medical Center,1
-73.79476254,40.72317588,St John's University- Marillac Hall,1
-73.9311399,40.7039631,Tina's Place,2
-74.03014,40.73675,Love and Yogurt,1
-73.96193504,40.80555881,St. Luke's Hospital Center,2
-73.98398146,40.74483111,Sign Language Center,1
-73.84721696,40.71961559,West Side Tennis Club,2
-73.94186034,40.78381751,The Electra Apartments,1
-73.983999,40.724793,Sophie's,1
-73.99888536,40.72306954,Bari,3
-73.89482953,40.74748394,Craig's Casa,3
-73.99575233,40.69092147,Floyd NY,2
-74.08202057,40.59843294,Hyland blvd,1
-74.071135,40.727203,Jazzman's Cafe,3
-74.11386505,40.629199,Pronto Pizza,1
-73.98557119,40.75077548,Public Interest Projects,1
-73.98374615,40.57520598,Peggy O'Neil's,1
-74.00333278,40.74232251,PH-D at Dream Downtown,10
-74.17926137,40.871983,Unclaimed Freight,1
-73.97375408,40.75369495,Oneills,1
-73.96802031,40.67970055,O.N.A,1
-73.99788683,40.69293303,The Heights Players Theatre,2
-74.03017044,40.82238338,Vince Lombardi Service Area,6
-73.88464451,40.8796783,MTA Subway - Mosholu Parkway (4),2
-74.00173172,40.73251613,Down the Hatch,5
-73.97515449,40.75103293,The Capital Grille,6
-74.0631706,40.73062825,HCCC G  building,2
-73.91047233,40.69967601,Richie's Gym,7
-74.00669554,40.74424036,Avenue,10
-73.985852,40.677882,Canal Bar,1
-73.81592631,40.60837737,MTA Subway - Broad Channel (A/S),3
-74.00777996,40.74055798,The Biergarten at The Standard,17
-73.9515355,40.78174106,Kaia Wine Bar,1
-73.96167222,40.80447435,St Lukes ER Hosp 20,1
-73.99033561,40.76087983,Hourglass Tavern,2
-73.95898598,40.77450603,Farinella Bakery,2
-73.9402,40.749965,7 train,2
-73.9642551,40.7679726,John's Breakfast Cart,3
-73.98354292,40.76455137,Gold's Gym,2
-73.99650335,40.75969183,THE OUT NYC,3
-74.08467639,40.75802642,Seacucus nj,1
-74.08385754,40.82939777,Fairfield Inn by Marriott East Rutherford Meadowlands,5
-73.92405152,40.69782773,Suburbia,1
-73.95990436,40.76553691,Julia Richman Education Complex,2
-73.93171971,40.86898549,La Marina,3
-74.20896,40.840792,Montclair Film Festival,1
-74.01668015,40.712149,Hudson River Trail,1
-74.04617786,40.78876247,Hampton Inn,8
-73.96442413,40.7679317,Hunter College Pedestrian Bridge,1
-73.8087423,40.698738,F & D Live Poultry,1
-74.13621426,40.55693365,MTA SIR - Bay Terrace Station,1
-73.98130701,40.7250468,Vazacs Horseshoe Bar / 7B,2
-74.003505,40.732351,Hummus Place,4
-74.02307233,40.62853102,5th Ave Street Festival,1
-73.955711,40.680443,Franklin Avenue Shuttle,1
-74.2479229,40.88882791,Hooters,6
-73.85389513,40.75460934,The Pine Restaraunt,1
-73.99513224,40.75308228,Hell Hole,1
-73.87434483,40.77506559,American Airlines - Admirals Club LGA,3
-74.20869827,40.80815748,NJT - Bay Street Station (MOBO),2
-74.03162956,40.90741525,Maggiano's Little Italy,4
-74.00755405,40.71037756,MTA Subway - Fulton St (A/C/J/Z/2/3/4/5),12
-73.9623642,40.80737789,Low Steps - Columbia University,1
-73.94502613,40.78650609,MTA M15 Bus Select Service,4
-74.00481332,40.72331246,Rauxa,1
-73.97650324,40.74767525,Duke's,17
-73.992059,40.635108,Sovereign Bank,2
-73.95767729,40.71822878,An Nhau,2
-73.99882798,40.71446356,Hop Kee,2
-73.98540974,40.74111615,Wahoo's Tacos & More,1
-74.03006676,40.73750065,Cooper's Union,1
-74.1761675,40.74318244,TKE,1
-73.952689,40.75891278,Fuji East,1
-74.000592,40.725963,Benefit,1
-73.992193,40.71576655,Eastern Travel,1
-73.98734629,40.73922589,Emma's Dilemma,1
-73.94186034,40.70477381,International House of Powkang,1
-74.04603994,40.75656967,Dunkin Dounts,1
-73.97271524,40.67744017,Flatbush Deli & Convenience,1
-74.00463798,40.724711,NYC iSchool,1
-73.97774935,40.68664232,Brooklyn Academy of Music (BAM),2
-73.82810182,40.71353731,Queens Borough Hall - Kew Gardens Central Jury Room,1
-73.90869252,40.77464643,Brooklyn Bagel & Coffee Co.,7
-73.99903457,40.71641212,H.K. Wonton Garden,2
-74.15608849,40.74047435,Harrison Station Apartments,2
-73.77116777,40.76387215,Conga's Bar n Lounge,1
-73.96386,40.629863,Midwood Martial Arts,1
-74.00371726,40.72934573,Blue Ribbon Bakery Kitchen,3
-73.95768126,40.71415186,The View,1
-73.980802,40.729872,Drop Off Service,4
-73.95361626,40.77561585,324 East 81 St,3
-73.94511798,40.80845052,Training w/ Mike,1
-73.948916,40.777538,Gotham Pizza,1
-73.95522952,40.72240464,Berry Park,7
-73.95646616,40.77148265,Caffe Noi,1
-74.1005704,40.88474289,Quick Stop,1
-73.948878,40.822596,MTA-D Heading Bklyn,1
-74.16959132,40.75053297,Las Canastillas Restaurant,1
-73.83594183,40.78624832,Baskin-Robbins,1
-73.99616521,40.76060942,New Gotham,1
-74.03961182,40.89455389,Bev Media/ EDC,5
-73.8454528,40.75746023,Shea Bridge,1
-73.98252368,40.73132393,First Avenue Bike Lane,1
-73.96248726,40.71746578,Graymarket,1
-74.0358876,40.74776981,J&E's Funhouse,1
-74.1147553,40.89273311,Friendly's,2
-73.9127,40.72942,LIE 495 East,1
-74.23444748,40.67770891,Kean University Cougar's Den,1
-73.94929111,40.78497546,Normandie Court,3
-74.237173,40.8974637,Wine and Beverage Depot,1
-73.96651653,40.80443416,Mel's Burger Bar,2
-74.00300569,40.73310155,Garage Restaurant & Cafe,3
-73.95569127,40.70780997,Zamaan Hookah Bar and Lounge,1
-74.00772271,40.74222669,The Highline Park,8
-74.245219,40.802311,Eagle Rock Diner,1
-73.984425,40.672949,The Hundred Story House,1
-73.9980303,40.73563655,BLT Burger,2
-73.80863544,40.6997078,LIRR - Jamaica Station - Track 1,1
-73.94895818,40.77722799,Taco Today,1
-74.05301631,40.88607967,Hackensack High School,1
-73.97525489,40.77585369,Strawberry Fields,6
-73.99370901,40.71350694,"East Broadway, New York, NY",1
-74.07228605,40.64326118,S78 Bus,1
-74.007388,40.73474,Studio D,1
-74.02323349,40.76480181,Lincoln Tunnel,19
-73.92631767,40.82850419,Yankee Team Store,1
-73.95293033,40.72004501,McCarren Dog Park,3
-74.24993428,40.62983584,Linwood Inn,1
-74.16181656,40.74709562,280 west,1
-73.745577,40.622798,Marquis,1
-73.95664984,40.61762009,"Midwood, Brooklyn",7
-73.9918,40.715339,The Fat Radish,4
-73.98950815,40.74187461,Grey New York,1
-73.792967,40.711327,Sagar Chinese,1
-73.98365433,40.76173832,"Winter Garden Theater, New York, NY",1
-74.0927813,40.75713982,NYC Skyline,1
-74.004504,40.749551,Stux,1
-74.00520444,40.73589287,Magnolia Bakery,14
-73.9749077,40.75386983,"Revlon, Inc.",1
-74.00533552,40.72894872,King Wok,1
-73.92946362,40.75692605,Omonia Cafe Lounge,1
-73.985856,40.743624,DUO Restaurant and Lounge,1
-73.944512,40.70538,Don Pedro,1
-73.782809,40.757176,Doctors,2
-73.98887973,40.75099148,Salem's Lot,1
-73.9739607,40.68622608,Night of the Cookers,1
-73.79030462,40.71742796,United Nations International School,3
-73.95928502,40.71705412,Juliette,1
-73.80271875,40.78096475,First Central Savings Bank,2
-73.99174632,40.75391233,Om Factory,2
-74.2196846,40.57843344,RWJ Rahway Fitness & Wellness Center at Carteret,3
-74.21618716,40.82677536,MKA Middle School Campus,1
-74.003602,40.718315,Giant Step,1
-74.030468,40.73878901,Tutta Pasta,1
-73.98391259,40.7574832,Here Media,1
-74.045335,40.75225532,Rumba's Cafe,1
-73.79351377,40.85636054,City Island Bridge,1
-73.98362563,40.7678739,313 W. 57th Street,1
-74.06730294,40.86047866,Gabriel's Bar and Grille,1
-73.95752231,40.71798443,Ella Café,1
-73.97811599,40.75973174,Harvard Business Review,1
-74.003523,40.73859,Art Bar,2
-73.90017217,40.74078918,Bp,1
-73.94829806,40.77422005,Saloon,4
-73.94784459,40.80969024,Harlem Lanes,1
-73.94914627,40.75388918,The Ravel Hotel,2
-73.96678448,40.68197236,Little Brother BBQ,1
-73.967963,40.80232143,The Underground Lounge,1
-73.97692323,40.74276196,AMC Loews Kips Bay 15,8
-73.91834636,40.61237408,My Beautiful Bed,1
-74.03775911,40.774093,Sonic,1
-73.95361626,40.58767817,Homee,1
-73.851877,40.834698,Nails At Last,1
-74.00012784,40.644599,Great Taste Dumpling (née Prosperity),1
-74.00387794,40.7375357,Cubby Hole,2
-74.16222632,40.73327308,Hero King,1
-73.98567259,40.73179547,Momofuku Milk Bar,13
-74.00537569,40.73319926,The Hanger,1
-73.99004187,40.71858257,Pop Karma,1
-73.9841,40.7489,Linea Pelle Showroom,2
-73.93778177,40.70429793,Ny Moore Hostel,1
-74.0039755,40.74916359,The Pace Gallery,1
-73.99107993,40.73005969,MTA Subway - Astor Pl (4/6),6
-74.23165727,40.74644859,Nico's Pizzeria,1
-73.87493046,40.73470151,THE BLOCK!,1
-73.99095883,40.726774,Bond Street Chocolates,1
-74.07646537,40.62689263,Tappen Park,12
-74.03197289,40.72678719,Babo Tea House,3
-73.90237391,40.64526737,Golden Crust,1
-73.92537617,40.86172292,Le Boy Bar,2
-73.989909,40.66114042,Southside Coffee,2
-73.96436989,40.69126572,Pratt Institute South Hall,1
-74.043498,40.758296,Bowl-Rite Lanes,1
-74.027405,40.741604,Hoboken Little League Field,2
-74.10339122,40.630865,Afternoones Restaurant,1
-73.787074,40.639078,Gate 14,1
-73.9033556,40.74576137,"Woodside, NY",1
-73.7739485,40.73312823,Cunningham Park Trail,1
-73.98496985,40.65850372,NY Route 27 - (Exprwy) ...On the Move!,1
-73.987176,40.718851,Sunita,1
-73.95571232,40.69084012,Brooklyn Kolache Co.,2
-73.994391,40.729588,NYU 5 Washington Place,2
-74.00503712,40.72020746,IHeartRadio Theater,1
-73.988676,40.74507684,The NoMad Hotel,4
-74.20925617,40.82059719,Panzano Pizzeria,1
-73.99206161,40.76395004,On the Rocks gocharge cell phone charging kiosk,1
-73.9813644,40.75917857,Del Frisco's Steakhouse,2
-73.91343482,40.74583591,The Kettle Bar & Resturant,2
-73.97549312,40.75816777,Pilot.is,1
-73.978914,40.758721,NBC Experience Store,2
-74.174316,40.759278,On the Moon :),1
-73.963223,40.649387,MTA Bus - B35/B35LTD - Church Ave & E 18 St,1
-74.00638566,40.73878448,Christian Louboutin,4
-73.99994701,40.59745364,Bensonhurst Park,1
-74.000031,40.761485,Atelier Fitness Center,1
-73.984906,40.761562,Walton Isaacson,1
-74.00620222,40.74133942,Simyone Lounge,5
-74.0131856,40.70339179,Flavors,3
-73.97445429,40.73164671,319,1
-73.980711,40.667815,7th Ave Nail-Spa,1
-73.99922848,40.7289499,Go! Go! Curry!,2
-74.03322249,40.68889407,Staten Island Ferry -- JFK,1
-73.99186684,40.75973064,Ninth Avenue International Food Festival,1
-73.99329582,40.72733016,Great Jones Spa Juice Bar,1
-73.979442,40.72751999,Spina,1
-73.98540925,40.732096,Professor Thom's,6
-74.10378804,40.81139509,Renaissance Meadowlands,2
-74.00221376,40.7299745,Avignone Chemists,3
-73.98825288,40.68846465,Nicky's Vietnamese Sandwiches,1
-73.97956802,40.75909894,Late Night with Jimmy Fallon,1
-73.96537147,40.75753284,La Casa De Oscar,2
-73.95818814,40.81608127,Good Friend Chinese Restaurant,1
-73.818512,40.706889,Flee Bee's House,5
-73.98940485,40.74856989,116 W32nd Street,1
-74.01238511,40.70489849,The Downtown Condominium,2
-73.985876,40.747433,Mandoo Bar,5
-73.902241,40.697414,House Party for Obama,1
-73.986211,40.74771,Miss Korea BBQ,6
-74.16292316,40.59243608,Barnes & Noble Cafe,8
-74.0874,40.59188,Citi Bank,1
-74.008595,40.740518,Meat Packing Dis LIMO,1
-73.98225546,40.75141031,Green Pea Deli,1
-74.17449911,40.66132659,jersey gardens Parking Lot,1
-73.982795,40.722821,Coyi Cafe,1
-73.97949341,40.74997527,Coffee Cart Guy,1
-73.98427989,40.74864234,CUNY Graduate Center,1
-73.82559299,40.58043799,Rockaway Beach - 106th Street,1
-74.00000095,40.71982701,Mondrian Soho,15
-74.15757356,40.61395674,Pho Mac,1
-74.067891,40.608167,762 Tompkins Ave,1
-73.80866,40.913461,Bistro Rollin,1
-74.004151,40.751792,The Eagle,1
-73.99183241,40.74968174,The Madison Square Garden Company,5
-73.78690941,40.75800027,Gyro World,1
-73.95287816,40.768045,David Copperfield's,1
-74.00415913,40.65453379,Ines Bakery,1
-74.06313044,40.7335756,Chase,8
-74.00370005,40.71900941,Soho Rep,1
-73.97879322,40.73653355,Sigfrido Barber Shop,1
-73.83260965,40.67328244,Resorts World New York,7
-73.99621367,40.73822397,MTA Subway - 14th St (F/L/M),2
-73.99023699,40.76362164,High School of Graphic Communication Arts,1
-73.82696629,40.85196219,Pelham Bay Park,2
-74.16213191,40.6042115,Z-One Diner & Lounge,1
-73.90292238,40.67860541,MTA Regional Bus Depot - East New York & Base Shops,1
-73.98763724,40.75359915,Fashion District,1
-73.98887515,40.72896617,Japadog,4
-74.07987213,40.80759048,Gotham Dream Cars @ Meadowlands,1
-73.835436,40.688106,PS 62Q The Chester Park School,1
-73.95584619,40.77950086,MTA Subway - 86th St (4/5/6),4
-73.973863,40.800066,101 Street Soccer Field,1
-73.92223835,40.78252367,Hell Gate Bridge,1
-73.95429646,40.76644328,Sotheby's,2
-73.9822425,40.61230103,MTA Subway - Bay Parkway (N),1
-73.98675,40.71961169,Tiny's Giant Sandwich Shop,1
-73.964658,40.64104,Catskill Bagels,1
-73.99120331,40.72999058,"Alamo ""The Cube""",1
-73.78338575,40.83902511,"MTA Bus Stop - City Island Av & Rochelle St (Bx29, BxM8)",1
-74.18919304,40.77922236,A.S.H. Lounge,1
-74.16445255,40.73412061,Newark PATH Station,4
-74.03667651,40.72362496,DoubleTree by Hilton Hotel & Suites Jersey City,2
-73.980181,40.724671,Sake Bar Satsko,1
-74.0054962,40.71857354,All Good Things,3
-74.23487838,40.68103985,Bruce Hall Parking Lot,6
-73.89617597,40.64906766,Glenwood Gourment Deli & Grocery,3
-73.9864263,40.69397913,Polytechnic Institute of NYU,7
-73.98783445,40.7498254,34th Street,4
-73.96168,40.598625,Red Lounge,1
-73.84808064,40.74878503,Court 4 - USTA Billie Jean King National Tennis Center.,1
-74.05039215,40.91383362,Miller's N.J. Ale House,5
-74.00197506,40.72078652,Nike Sportswear,3
-73.789111,40.641101,Airport,1
-73.91464621,40.85770358,BCC Carl Polowczyck Hall,1
-73.979313,40.755901,AMI Partners,1
-73.91210285,40.7639908,"Times Square, New York",1
-73.9483612,40.81739204,St. Nicholas Park,1
-73.99580367,40.73690277,Bourbon Coffee,2
-73.98540475,40.77240143,Lincoln Center Out of Doors (Chio-Tian Folk Drums & Arts Troupe),2
-73.99316382,40.61614098,Villabate Alba,1
-73.99832871,40.67719225,Prime Meats,5
-73.82881165,40.80023122,Bronx-Whitestone Bridge,3
-73.99361145,40.73987264,Yarok Beauty Kitchen,1
-74.17938709,40.68968494,Newark Liberty International Airport (EWR),198
-73.97011525,40.69609735,Vespa Brooklyn / Aprilia Brooklyn / Moto Guzzi Brooklyn,1
-73.96150857,40.6552623,MTA Subway - Parkside Ave (Q),7
-73.98845673,40.74911015,33rd St PATH Station,6
-74.00511172,40.75155778,Seventh House,2
-73.98250076,40.73856399,Goodwill Super Store,1
-73.98965836,40.74826484,Kornhaber Brown,1
-73.992318,40.758765,Talent II (Thai Kitchen),1
-74.0127039,40.84878091,AMC Loews Ridgefield Park 12,1
-73.98373604,40.75840782,The Church of St. Mary the Virgin,1
-73.83602511,40.87719935,Andresflava HQ,8
-73.979276,40.66965697,Konditori,1
-73.85918432,40.76049651,LaGuardia Airport- Delta flt 2647,3
-74.00023969,40.74297124,Rocking Horse Cafe,2
-73.98232284,40.77759949,Choco Bolo,3
-73.964074,40.66308,NYC Century Bike Tour 2011 Brooklyn Start,6
-74.00491661,40.65064742,Family store,1
-73.986525,40.828021,Whiskey Pete's Bar & Cafe,3
-73.97305012,40.78531821,Kefi Restaurant,1
-73.95202914,40.77705882,Seahorse Tavern,1
-73.995035,40.743908,Monster Sushi,2
-73.95612751,40.77869357,Subway Sandwiches & Salads,1
-74.01260603,40.69137077,Governors Island - Pier 101,1
-73.98287954,40.69170793,Dekalb Market,4
-74.00526666,40.72642962,W.i.P.,7
-73.8390255,40.65648522,Cross Bay Diner,1
-73.989021,40.88192,"Likeletter Projects, Inc.",1
-73.9750397,40.78176416,American Museum Of Natural History Education Department,1
-74.00837689,40.70963264,Zaitzeff,1
-73.94347051,40.80271934,Bethel Gospel Assembly,1
-73.94209857,40.81165094,Nu Locs,1
-73.84391785,40.74452586,Flushing Meadows-Corona Park,1
-73.81485639,40.77571087,Q15 Bus Stop,1
-73.97742748,40.74937024,Desi Shack,1
-74.00236871,40.70559074,Seaport Cafe,2
-74.08814095,40.71020251,NJCU Media Arts Recording Studio (MARS),1
-73.98170875,40.75655768,Little Italy Gourmet Pizza & Pasta Parlor,1
-73.8292161,40.73099579,Kew Gardens Hills,2
-73.980326,40.752535,Cafe Zaiya,1
-73.98083925,40.77940405,Salumeria Rosi Parmacotto,2
-74.003018,40.72316832,Cupping Room Cafe,9
-73.771199,40.763921,Bourbon Street,4
-73.814193,40.705936,Silent Hill,1
-73.91351,40.858646,BCC CUNY Philosophy  Hall,1
-73.95698262,40.67396104,The Crown Inn,3
-73.81767215,40.765111,Picnic Garden BBQ Buffet House,2
-74.01066649,40.70977599,NASDAQ OMX,1
-73.991406,40.6871357,muriel guepin gallery,1
-73.98877356,40.77587889,ABC Studio TV 24,1
-73.69734942,40.66494812,CVS,4
-73.70671749,40.73730739,Carlstan North Hills Agency,1
-73.9800329,40.76526206,MTA Subway - 57th St/7th Ave (N/Q/R),2
-74.08343166,40.8749244,Poolside @ Big Daddy's Tiki Hut,1
-73.99384674,40.7508289,Amtrak Waiting Area,3
-74.18942809,40.70992387,Logan Hall,1
-74.04255152,40.77667021,North Bergen Park and Ride,2
-73.88307006,40.8149116,With My Favorite Hooker,1
-73.9417186,40.6316156,Pizza Party,1
-73.99493712,40.71977014,The Randolph at Broome,1
-73.98141031,40.74185196,Artica,1
-74.13871002,40.73203659,Otra casita,1
-73.98569171,40.75035141,Tio Pio West,1
-73.9832698,40.75382114,B.P. Cafe,1
-73.98887973,40.69167638,Houchins House Of Horrors,1
-73.98132997,40.57684371,David's Check Cashing,1
-73.9846158,40.77322938,New York Public Library for the Performing Arts (LPA),2
-74.02534246,40.74472094,"S.C. Williams Library, Stevens Institute",1
-73.98270737,40.74424119,Pierpont Condo workout room,4
-73.78345095,40.88648858,Glen Island Harbor Club,2
-73.7260294,40.78707285,LIRR - Great Neck Station,1
-74.00659798,40.70621753,SS+K Obama Wall,1
-73.98913264,40.67818083,Carroll Street Bridge,1
-73.98455,40.745885,The Bowery Mission HQ,1
-73.977164,40.773343,Central Park - Tots Playground,1
-73.993751,40.734312,Make Up For Ever,2
-73.98002143,40.77070036,1310,1
-73.84599266,40.75716041,Acela Club,1
-73.97712596,40.69000838,Where I Hold Court II,1
-73.95556658,40.772512,MxCo Cantina,3
-74.00608152,40.74136579,Abe & Arthur's,6
-73.99677926,40.60589895,Animal clinic of 20th Avenue,1
-73.97700256,40.76504828,Theory of Cool,1
-74.06279771,40.73649956,St John the Baptist Roman Catholic Church,1
-73.91794,40.746473,The Dog And Duck,1
-73.924603,40.704803,Guacuco Restaurant,1
-73.97933272,40.75925872,Tri Tip Grill,1
-73.75241406,40.69449674,The Smokehouse,1
-73.99420829,40.61137864,Ps 186,3
-74.0244437,40.7640866,CFT-ISO,1
-74.0011923,40.7313445,West 4th Street Nyc,2
-73.96159186,40.6285804,Jewville,1
-73.80536118,40.79164276,Panorama Bakery Cafe,4
-73.99036325,40.74676075,120 West 29th Street,1
-73.831558,40.75838685,Sifu Chio,1
-73.98892907,40.720896,Orchard Corset,1
-73.93606535,40.7021885,Casa Carrera,1
-73.987815,40.721279,Pimps and Pinups,1
-73.98347067,40.72212658,Cornerstone Cafe,5
-73.98501277,40.68847685,MTA Subway - Hoyt/Schermerhorn Sts (A/C/G),1
-74.018479,40.808673,Burlington Coat Factory,3
-74.18137898,40.68761348,American Airlines Checkin,1
-73.95041618,40.77977788,Midnight Express,2
-73.93994018,40.75052332,Queens Plaza South,1
-73.99303757,40.76690242,The Ensemble Studio Theatre,1
-73.77940804,40.64325159,Tigin Irish Pub,1
-73.80910072,40.81451052,Mamma Lucia's Pizza & Pasta,1
-73.954289,40.6841594,Joloff Restaurant 2,1
-73.92050212,40.86817363,Garden Cafe,1
-73.98951888,40.75608352,New York Times Center,8
-73.96317959,40.66760246,Brooklyn Botanic Garden,7
-74.0056976,40.719972,Anotheroom,2
-74.24582005,40.89658138,New Jersey Motor Vehicle Commission,5
-73.98942206,40.72121578,Rayuela,1
-73.72373343,40.71202034,Belmont Park Racetrack,3
-73.82806161,40.75774086,Fay Da Bakery,2
-73.99122982,40.69195653,O'Keefe's Bar & Grill,1
-73.943523,40.810203,Jacob Restaurant,1
-73.87405188,40.91451114,Central Park Ave & Mclean Ave,1
-73.97310552,40.76364674,MDC Innovation Center,1
-73.977466,40.726562,Kasadela,1
-73.8685621,40.70887084,Flynn & O'Hara Uniforms,1
-73.98581207,40.7569653,Bubba Gump Shrimp Co.,3
-73.91205118,40.77564307,Mojave NYC,1
-73.98571466,40.72780185,Theatre 80,1
-74.00441736,40.75112296,Emmanuel Fremmin Art Gallery,1
-73.8514199,40.68472311,Local 361 Ironworkers,2
-73.9919786,40.72950979,Playwrights Horizons Theater School,1
-73.901124,40.83846688,Seven Light Baptist Church,2
-73.98875646,40.72284169,MTA Subway - Lower East Side/2nd Ave (F),1
-73.99162007,40.72678321,Salon Hecho,1
-73.98521536,40.88215107,The Gym,4
-73.7443804,40.76539278,Am Yours Cafe,1
-74.00078485,40.73089297,Blue Note,4
-74.079579,40.863929,Hop Bar,1
-73.92839584,40.59361977,Looney Bin,1
-73.98625987,40.74760294,Kunjip,2
-74.02413672,40.76586902,My Pinkk Palace,1
-73.99176928,40.73772447,FircoSoft Inc,1
-74.00365988,40.70715285,Sports Recruits LLC NYC HQ,1
-74.031585,40.75521,Pilsener Haus & Biergarten,9
-73.97661229,40.68906898,Brooklyn Technical High School,2
-73.976563,40.780774,Dovetail,2
-73.99352537,40.68664807,Joya,1
-73.95790114,40.71447276,Extra Fancy,2
-74.00001014,40.577285,B74 / B36,1
-73.846117,40.748769,Esurance Booth - US Open,1
-73.95171918,40.76597212,East River Benches,1
-74.00460099,40.72348549,NYC Elite Gymnastics,2
-73.996714,40.713608,Modern Dental Associates,1
-73.97743301,40.78719549,Baked By Melissa,2
-74.00505,40.733848,L'Artusi,1
-73.99060249,40.7558072,Dean & Deluca,4
-74.01339791,40.70509814,BMCC Center for Continuing Education and Workforce Development,1
-74.00352215,40.72268823,treasure&bond,1
-73.97566795,40.74863873,Wharf Bar & Grill,4
-73.9544457,40.71782286,Sugarland Bar,1
-74.06386566,40.72257996,The Juice Bar at Club Aqua,1
-73.993653,40.745702,Rare Bar & Grill Chelsea,3
-74.01321429,40.70145732,Staten Island Ferry - Whitehall Terminal,20
-74.01013857,40.70435829,Smörgås Chef,1
-74.001841,40.736182,Dignity/New York @ St. John's in the Village Church,1
-74.02413672,40.75598879,Palma Residence,1
-74.246927,40.61888,A.C. Moore,1
-74.241666,40.8297575,Richfield Regency,1
-73.86109937,40.757468,Elmcor Recreation Center,2
-73.96882296,40.77137686,East Green,1
-74.18393612,40.68708163,United Club - Terminal A1,1
-74.09540256,40.61703097,Wagner College Stadium,1
-73.98898244,40.75935661,Al Hirschfeld Theater,1
-73.9909601,40.69967643,Borough Park,2
-73.99362803,40.75684746,Tabata Noodle Restaurant,3
-73.91501364,40.84085392,1454 Walton ave,1
-74.24669624,40.74400289,Seton Hall Cafeteria,2
-73.98351659,40.75118484,8 West 38th Street,2
-73.9883087,40.74131673,Natural Deli,2
-73.99303526,40.73378729,Grey Dog Cafe,5
-73.866492,40.750704,Big Belly Backyard Barbecue,1
-74.11562001,40.66289054,Iglesia Ni Cristo (Locale of Jersey City),1
-73.96203382,40.80688363,Hamilton Hall - Columbia University,1
-73.97548164,40.75241622,Brixmor Property Group,3
-74.00508,40.71903,Traffic Jam,1
-73.989698,40.755854,Boi Noodles,1
-73.99840236,40.72463457,"Lure Fishbar | Seafood, Sushi and Raw Bar",4
-73.98578525,40.69455772,Bern Dibner Library,3
-73.95062282,40.78662301,ABV,2
-73.98359694,40.76552561,Matt's Grill,1
-73.96790028,40.76175596,Bloomberg,5
-73.99329008,40.72233847,The New Museum of Contemporary Art,11
-73.944463,40.66419994,Empire Kosher,1
-73.98539901,40.75205385,Olympic Pita,1
-74.02384043,40.75883853,Sheraton Lincoln Harbor Hotel,1
-74.17999156,40.78160925,School 4 BPS,1
-74.00009048,40.75838396,New York Convention Center,3
-73.82426211,40.8360806,"Winterfell ""Winter is Coming""",4
-73.99746895,40.73509617,"Gilt City's ""Tim Gunn's Fashion Bible"" Party",1
-73.98759842,40.74111182,Credit Suisse (1 Madison Ave),1
-74.07693826,40.89275053,"Brooklyn, New York",2
-73.958428,40.719119,Brooklyn Ale House,2
-73.975608,40.751955,Training Room,2
-74.03607935,40.74296721,Fiore's Deli,1
-73.98403311,40.7671648,Istanbul Turkish Restaurant,1
-74.002962,40.752011,Sean Kelly Gallery,1
-73.89073275,40.69639637,The Happiest Place On Earth My Bed,1
-73.87260479,40.7758086,LGASW,1
-73.97971151,40.75136273,Massey Knakal,3
-74.05594647,40.71027794,NJT - Liberty State Park Light Rail Station,1
-73.99865582,40.72353353,Lacoste,2
-73.988706,40.722665,Mole Mexican Bar & Grill,1
-74.12739533,40.862906,Passaic Bus Terminal,2
-74.00141716,40.72259166,Isabel Marant,2
-73.9456059,40.82723115,David & Moe Deli Grocery,5
-73.88745411,40.64261786,Fresh Creek Park,1
-73.99613857,40.69103536,Tazza Bakery Enoteca,2
-73.98450315,40.74988636,KRISTALBELLI,2
-73.95453754,40.71867926,Fushimi,1
-73.91783953,40.7667616,Carolyn Gables,1
-74.02938724,40.73606359,Hoboken PATH Station,9
-73.98155953,40.75552574,Harvard Club of New York City,1
-73.92877473,40.68117555,Bed Stuy,1
-73.99744495,40.75673932,Clyde Frazier's Wine and Dine,1
-73.99537951,40.72292503,City Grit Culinary Salon,1
-74.07074294,40.7268353,Millenium Hall,1
-73.96604588,40.75833217,Naya Mezze & Grill,2
-74.00063278,40.74277689,Benthrynopolis East,1
-74.20738255,40.54265554,Islander Taste I,1
-73.9937951,40.74607142,Unite Here Local 100,1
-73.778061,40.714015,Foo On Restaurant,2
-73.98347855,40.77199437,David H. Koch Theater,1
-74.003444,40.736216,Tartine,1
-74.03796745,40.72792677,Sears,2
-73.91198803,40.65899361,The Verb Congregational Church,1
-74.00821048,40.83565797,Ridgefield Diagnostic Imaging,1
-74.00081929,40.73602241,Yerba Buena,3
-73.92168723,40.867469,"C-Town Supermarket, Inwood",1
-73.96296501,40.80754031,Journalism Library at Columbia,1
-74.21430705,40.64539834,Tumi Restaurant,1
-74.08368587,40.72413656,Lincoln Park,1
-73.99496581,40.7261384,Bleecker Street Bar,5
-73.95740751,40.71827057,Organic Planet,1
-73.98227692,40.76256859,Sheraton New York Hotel & Towers,11
